Link,Pris,Årlige_lejeindtægter_ialt,Årlige_lejeindtægter_pr_m2,Årlige_driftsudgifter_ialt,Årlige_drifsudgifter_pr_m2,Afkast,Pris_pr_m2,Etageareal,Grundareal,Energimærke,Adresse,latitude,longitude
https://www.ejendomstorvet.dk/investering/oestjylland/horsens/boligudlejning/2b41e9b0-7390-42e5-b3b2-49e8af056381,3.090.000 kr.,197.472 kr.,987 kr.,28.700 kr.,143 kr.,"5,4 %",15.450 kr.,200 m²,6.823 m²,C,"Munchsvænget 10 + 12, 8700 Horsens",55.855175,9.7723628
https://www.ejendomstorvet.dk/investering/fyn/kerteminde/lager-produktion/069a3f39-ec1a-4a93-82eb-a03810f4eeb6,9.900.000 kr.,940.152 kr.,359 kr.,167.492 kr.,63 kr.,"7,8 %",3.781 kr.,2.618 m²,5.869 m²,B,"Industrivej 15, 5550 Langeskov",55.353461,10.579361
https://www.ejendomstorvet.dk/investering/oestsjaelland/roskilde/andre-typer/6118bfc6-b3ad-4e7b-afa9-90825c7ae6c9,8.975.000 kr.,"-0,0 %",85.476 kr.,,,,,105 m²,1.799 m²,Ikke krav om energimærke,"Valhalvej 55, 4000 Roskilde",55.652885,12.089494
https://www.ejendomstorvet.dk/investering/oestjylland/randers/lager-produktion/c0d36de6-6022-4064-bedb-16423278cb22,8.500.000 kr.,1.031.943 kr.,244 kr.,289.091 kr.,68 kr.,"8,8 %",2.012 kr.,4.224 m²,3.662 m²,Ikke krav om energimærke,"Scandiasporet 37, 8930 Randers NØ",56.466654,10.058901
https://www.ejendomstorvet.dk/investering/fyn/middelfart/detailhandel-butik/eae5cc72-56a6-463d-8696-0c4e60963628,12.500.000 kr.,1.147.500 kr.,1.189 kr.,20.900 kr.,21 kr.,"9,0 %",12.953 kr.,965 m²,2.488 m²,C,"Jernbanevej 1, 5580 Nørre Aaby",55.459119,9.872543
https://www.ejendomstorvet.dk/investering/vest-og-sydsjaelland/vordingborg/andre-typer/ea3cc783-e61f-473d-aaec-e61588c2bf31,4.495.000 kr.,554.000 kr.,805 kr.,93.364 kr.,135 kr.,"10,1 %",6.533 kr.,688 m²,1.657 m²,Ikke krav om energimærke,"Storegade 48, 4780 Stege",54.984752,12.286178
https://www.ejendomstorvet.dk/investering/sydjylland/aabenraa/andre-typer/a134880a-9711-445f-ba2e-d3fcdf92c7ad,1.500.000 kr.,36.000 kr.,73 kr.,"0,0 %",3.048 kr.,,,492 m²,5.660 m²,C,"Kempesteens Vej 70, 6330 Padborg",54.842519,9.361436
https://www.ejendomstorvet.dk/investering/oestjylland/randers/detailhandel-butik/2dbd5127-1849-479b-ab15-f3d85c03d999,5.250.000 kr.,92.109 kr.,250 kr.,"-1,7 %",14.266 kr.,,,368 m²,2.673 m²,A15,"Østervold 7, 8900 Randers C",56.462232,10.037547
https://www.ejendomstorvet.dk/investering/oestjylland/randers/boligudlejning/85bfd34b-f979-4f6a-9532-ed9be4ef7084,49.750.000 kr.,3.991.554 kr.,740 kr.,1.997.096 kr.,370 kr.,"4,1 %",9.228 kr.,5.391 m²,3.308 m²,D,"Danmarksgade 7 m.fl., 8900 Randers C",,
https://www.ejendomstorvet.dk/investering/sydjylland/vejen/lager-produktion/a8b48a6c-cf87-41fe-aac0-95fc4cfd3801,1.800.000 kr.,11.750 kr.,21 kr.,"-0,6 %",3.284 kr.,,,548 m²,3.000 m²,Ikke krav om energimærke,"Industri Vest 3, 6650 Brørup",55.48404,9.003618
https://www.ejendomstorvet.dk/investering/sydjylland/esbjerg/detailhandel-butik/8d5c039a-482a-47dc-a09a-5c6335cd18a4,34.000.000 kr.,3.050.638 kr.,575 kr.,518.747 kr.,97 kr.,"7,4 %",6.418 kr.,5.297 m²,16.175 m²,D,"Sædding Ringvej 1C, 6710 Esbjerg V",55.502256,8.407127
https://www.ejendomstorvet.dk/investering/nordjylland/vesthimmerlands/boligudlejning/bde71e8a-dcde-4aee-a4e6-904cc982b7b4,995.000 kr.,180.000 kr.,573 kr.,74.296 kr.,236 kr.,"11,0 %",3.168 kr.,314 m²,2.594 m²,D,"Svoldrupvej 14, 9640 Farsø",56.764092,9.341802
https://www.ejendomstorvet.dk/investering/koebenhavns-omegn/gladsaxe/boligudlejning/2d6ee528-09f9-4437-95d7-e5e82ccd6292,80.000.000 kr.,3.550.000 kr.,1.624 kr.,400.000 kr.,183 kr.,"3,9 %",36.613 kr.,2.185 m²,540 m²,A15,"Gladsaxevej 22, 2860 Søborg",55.728641,12.521168
https://www.ejendomstorvet.dk/investering/oestjylland/horsens/boligudlejning/0e9976c7-cdd0-458a-b0d9-446288b31426,5.800.000 kr.,593.412 kr.,745 kr.,161.425 kr.,202 kr.,"7,6 %",7.286 kr.,796 m²,2.465 m²,C,"Søndergade 102, 8740 Brædstrup",55.964308,9.611384
https://www.ejendomstorvet.dk/investering/koebenhavns-omegn/gladsaxe/lager-produktion/ea75951e-b1ee-4880-bf76-43c399cf8109,45.000.000 kr.,3.232.724 kr.,890 kr.,252.372 kr.,69 kr.,"6,8 %",12.400 kr.,3.629 m²,3.600 m²,C,"Gladsaxe Møllevej 15, 2860 Søborg",55.732977,12.475995
https://www.ejendomstorvet.dk/investering/nordjylland/hjoerring/boligudlejning/f66e0027-56f8-45ab-98cf-967b51435601,5.995.000 kr.,448.524 kr.,803 kr.,81.540 kr.,146 kr.,"6,2 %",10.743 kr.,558 m²,1.561 m²,C,"Vestbanegade 4A, 9800 Hjørring",57.456747,9.983303
https://www.ejendomstorvet.dk/investering/koebenhavns-omegn/gladsaxe/kontor/5a89439f-16eb-4800-a989-566bca9d5ff4,109.995.000 kr.,7.348.397 kr.,1.849 kr.,564.982 kr.,142 kr.,"6,2 %",27.678 kr.,3.974 m²,5.818 m²,A10,"Brudelysvej 23, 2880 Bagsværd",55.754786,12.447921
https://www.ejendomstorvet.dk/investering/koebenhavns-omegn/ballerup/kontor/36c79e95-2576-4650-aeb2-73a0cd978568,170.000.000 kr.,17.127.900 kr.,881 kr.,4.943.220 kr.,254 kr.,"7,2 %",8.751 kr.,19.425 m²,18.622 m²,A10,"Tonsbakken 16, 2740 Skovlunde",55.711188,12.423265
https://www.ejendomstorvet.dk/investering/vestjylland/viborg/boligudlejning/e91e0edd-465a-4536-bfdf-a09901851fb9,3.145.000 kr.,366.900 kr.,530 kr.,103.880 kr.,150 kr.,"8,6 %",4.551 kr.,691 m²,3.198 m²,G,"Søndergade 23, 7470 Karup J",56.338116,9.254789
https://www.ejendomstorvet.dk/investering/oestjylland/horsens/lager-produktion/d6b457a2-5f53-42cf-83b7-9e902baf2455,10.000.000 kr.,667.422 kr.,513 kr.,69.000 kr.,53 kr.,"6,1 %",7.692 kr.,1.300 m²,17.333 m²,B,"Præstemarksvej 67, 8700 Horsens",55.845959,9.782186
https://www.ejendomstorvet.dk/investering/nordjylland/frederikshavn/lager-produktion/b312abb2-9daf-4c08-bd05-c37c41b6652e,12.000.000 kr.,99.842 kr.,60 kr.,"-0,8 %",7.317 kr.,,,1.640 m²,2.738 m²,A10,"Flade Engvej 4, 9900 Frederikshavn",57.447765,10.506254
https://www.ejendomstorvet.dk/investering/nordjylland/frederikshavn/detailhandel-butik/8607b932-63ce-406c-9302-1c04b72a53a5,1.995.000 kr.,348.520 kr.,439 kr.,95.137 kr.,119 kr.,"12,5 %",2.515 kr.,793 m²,2.879 m²,C,"Sæbygårdvej 2, 9300 Sæby",57.333164,10.512915
https://www.ejendomstorvet.dk/investering/oestsjaelland/greve/boligudlejning/a76dd9da-b42c-486f-a01f-a5a202206c07,355.793 kr.,335 kr.,"0,0 %",,,,,1.062 m²,5.872 m²,C,"Hundige Bygade 51A, 2670 Greve",55.604656,12.330016
https://www.ejendomstorvet.dk/investering/nordsjaelland/alleroed/lager-produktion/feb970fc-b31c-43b7-a8cf-fea10f9be390,4.800.000 kr.,465.645 kr.,446 kr.,125.802 kr.,120 kr.,"7,0 %",4.606 kr.,1.042 m²,3.251 m²,Ikke krav om energimærke,"Industriskellet 10, 3540 Lynge",55.82996,12.303388
https://www.ejendomstorvet.dk/investering/nordjylland/hjoerring/boligudlejning/0a0dfc82-a628-42ee-a066-df09087ccc8e,35.705.000 kr.,2.732.218 kr.,897 kr.,599.843 kr.,197 kr.,"6,0 %",11.729 kr.,3.044 m²,4.207 m²,C,"Mellemgade 5 m.fl., 9800 Hjørring",,
https://www.ejendomstorvet.dk/investering/oestjylland/silkeborg/kontor/4553608d-a50d-40b8-bc1d-6e4e256ed247,10.900.000 kr.,940.184 kr.,836 kr.,162.878 kr.,144 kr.,"7,2 %",9.697 kr.,1.124 m²,5.569 m²,C,"Ballevej 2B, 8600 Silkeborg",56.1826,9.534562
https://www.ejendomstorvet.dk/investering/vest-og-sydsjaelland/holbaek/andre-typer/9256510e-5977-4649-a831-124894eb028a,1.645.000 kr.,115.350 kr.,438 kr.,40.565 kr.,154 kr.,"4,6 %",6.254 kr.,263 m²,1.565 m²,F,"Vestergade 27, 4340 Tølløse",55.611507,11.769892
https://www.ejendomstorvet.dk/investering/vestjylland/holstebro/boligudlejning/299cc2d0-9ebe-4e16-ad89-c6984af71da2,25.250.000 kr.,1.405.992 kr.,1.122 kr.,226.293 kr.,180 kr.,"4,7 %",20.167 kr.,1.252 m²,4.261 m²,A15,"Under Syrenen 41A, 7500 Holstebro",56.337893,8.645627
https://www.ejendomstorvet.dk/investering/nordjylland/frederikshavn/detailhandel-butik/d63ab822-2a95-4627-8dac-be0e2de14ae7,2.950.000 kr.,351.835 kr.,409 kr.,60.416 kr.,70 kr.,"10,1 %",3.430 kr.,860 m²,3.439 m²,E,"Ålborgvej 81B, 9300 Sæby",57.327442,10.498981
https://www.ejendomstorvet.dk/investering/vest-og-sydsjaelland/vordingborg/hotel-restaurant/0cbfaac9-5146-4835-b717-a5d789788afd,10.000.000 kr.,"0,0 %",4.960 kr.,,,,,2.016 m²,4.363 m²,C,"Østerbro 2, 4720 Præstø",55.122806,12.047585
https://www.ejendomstorvet.dk/investering/oestjylland/aarhus/boligudlejning/146f9066-fb58-4207-b51b-6c6281e4a609,27.200.000 kr.,1.368.000 kr.,1.106 kr.,204.580 kr.,165 kr.,"4,3 %",22.006 kr.,1.236 m²,3.233 m²,A15,"Rønnevangen 185A, 8471 Sabro",56.208805,10.04795
https://www.ejendomstorvet.dk/investering/oestjylland/hedensted/boligudlejning/90361be3-11cf-4919-9388-2fed5eb7da94,81.600.000 kr.,4.870.080 kr.,1.276 kr.,708.520 kr.,185 kr.,"5,3 %",21.383 kr.,3.816 m²,19.668 m²,A15,"Sindballevej 26 m.fl., Lindved, 7100 Vejle, 7100 Vejle",,
https://www.ejendomstorvet.dk/investering/vestjylland/herning/kontor/95ead110-b1ae-4644-a634-0a7c934be14f,71.500.000 kr.,4.985.869 kr.,945 kr.,325.000 kr.,61 kr.,"6,8 %",13.562 kr.,5.272 m²,4.897 m²,B,"Poulsgade 6-8, 7400 Herning",56.1323756,8.9864848
https://www.ejendomstorvet.dk/investering/oestjylland/horsens/boligudlejning/bc871ca7-904a-4dab-a9d7-f4882484c0f8,31.000.000 kr.,2.095.932 kr.,938 kr.,592.476 kr.,265 kr.,"4,9 %",13.876 kr.,2.234 m²,8.174 m²,C,"Bygholm Parkvej 15A, 2, 8700 Horsens",,
https://www.ejendomstorvet.dk/investering/sydjylland/esbjerg/boligudlejning/6eca452e-a9ab-402d-80f2-4c377c5eddd2,3.998.000 kr.,297.177 kr.,940 kr.,67.010 kr.,212 kr.,"5,8 %",12.651 kr.,316 m²,1.631 m²,A15,"Darumvej 54A, 6740 Bramming",55.463268,8.689533
https://www.ejendomstorvet.dk/investering/fyn/svendborg/hotel-restaurant/261dace3-9152-4a6d-9a5f-b94c73db92e7,2.250.000 kr.,100.704 kr.,130 kr.,"9,9 %",2.910 kr.,,,773 m²,1.641 m²,Ikke krav om energimærke,"Langgade 22, 5874 Hesselager, 5874 Hesselager",,
https://www.ejendomstorvet.dk/investering/nordsjaelland/egedal/kontor/c2e056be-3a70-4f17-b597-3a7733331b26,3.695.000 kr.,18.768 kr.,62 kr.,"-0,5 %",12.316 kr.,,,300 m²,1.905 m²,Ikke krav om energimærke,"Niels Olsens Vej 1, 3650 Ølstykke",55.780106,12.171483
https://www.ejendomstorvet.dk/investering/vestjylland/herning/lager-produktion/3b041b67-7ecb-4812-9736-01ff6e213920,16.640.000 kr.,1.842.880 kr.,453 kr.,12.500 kr.,3 kr.,"11,0 %",4.094 kr.,4.064 m²,10.753 m²,Ikke krav om energimærke,"Hedelandsvej 18, 7400 Herning",56.12612,8.934873
https://www.ejendomstorvet.dk/investering/sydjylland/fredericia/andre-typer/620a5607-1331-4971-9103-f55105faaf02,25.000.000 kr.,1.281.474 kr.,101 kr.,2.000 kr.,"5,1 %",1.978 kr.,,12.636 m²,12.636 m²,Ikke krav om energimærke,"Venusvej 8, 7000 Fredericia",55.567963,9.721543
https://www.ejendomstorvet.dk/investering/vestjylland/ringkoebing-skjern/lager-produktion/e7edc82a-bb03-4c07-b974-c8e29590433a,16.995.000 kr.,152.372 kr.,12 kr.,"-0,9 %",1.416 kr.,,,11.994 m²,30.947 m²,C,"Bredgade 4, 6940 Lem St",56.025636,8.375147
https://www.ejendomstorvet.dk/investering/nordsjaelland/helsingoer/boligudlejning/25e427bb-e65e-48bd-8a90-de3b317261a6,4.000.000 kr.,318.115 kr.,1.683 kr.,102.202 kr.,540 kr.,"5,4 %",21.164 kr.,189 m²,2.005 m²,C,"Kongevejen 140, 3000 Helsingør",56.026054,12.583583
https://www.ejendomstorvet.dk/investering/vestjylland/ikast-brande/kontor/ee1fc73b-7909-47aa-a73d-0d3f3ec04851,19.995.000 kr.,1.476.682 kr.,903 kr.,57.204 kr.,35 kr.,"7,0 %",12.236 kr.,1.634 m²,1.599 m²,A10,"Finsensvej 1F, 7430 Ikast",56.122223,9.177823
https://www.ejendomstorvet.dk/investering/vestjylland/ikast-brande/kontor/44fe1dd8-b2c6-4c31-9af7-117453460462,49.495.000 kr.,3.389.519 kr.,663 kr.,124.544 kr.,24 kr.,"6,7 %",9.689 kr.,5.108 m²,20.406 m²,A10,"Finsensvej 3, 7430 Ikast",56.121687,9.177199
https://www.ejendomstorvet.dk/investering/vestjylland/ringkoebing-skjern/lager-produktion/bbeb0eb1-9cd5-4e7f-84a0-ba50dc3cce49,12.500.000 kr.,101.206 kr.,14 kr.,"-0,8 %",1.838 kr.,,,6.800 m²,19.400 m²,Ikke krav om energimærke,"Smed Hansens Vej 10, 6940 Lem St",56.02313,8.386257
https://www.ejendomstorvet.dk/investering/nordjylland/aalborg/andre-typer/c223e128-7df5-474e-8b35-9c32ef67aa3f,18.900.000 kr.,1.300.000 kr.,1.444 kr.,90.000 kr.,100 kr.,"6,7 %",21.000 kr.,900 m²,3.370 m²,G,"Vodskovvej 135, 9310 Vodskov",57.125496,10.063683
https://www.ejendomstorvet.dk/investering/vest-og-sydsjaelland/holbaek/lager-produktion/20671461-8873-458f-9819-31ec8fb3827c,3.250.000 kr.,345.975 kr.,441 kr.,69.663 kr.,88 kr.,"8,7 %",4.145 kr.,784 m²,3.716 m²,D,"Springstrup 15C + 15D, 4300 Holbæk",55.7037837,11.6612745
https://www.ejendomstorvet.dk/investering/vest-og-sydsjaelland/odsherred/boligudlejning/dd2c2297-8434-46e8-bc47-9f53010b8f23,1.550.000 kr.,192.528 kr.,1.188 kr.,44.330 kr.,273 kr.,"10,2 %",9.567 kr.,162 m²,2.793 m²,E,"Østerlyngvej 63A-C, 4500 Nykøbing Sj",,
https://www.ejendomstorvet.dk/investering/sydjylland/soenderborg/andre-typer/bff1420c-afcd-4c4a-94b7-33d81c8889a0,14.356 kr.,29 kr.,"0,0 %",,,,,479 m²,4.640 m²,G,"Stenvej 27, 6300 Gråsten",54.892117,9.556841
https://www.ejendomstorvet.dk/investering/sydjylland/aabenraa/boligudlejning/28053728-0703-4441-a8a7-f1204d6cb9c5,1.800.000 kr.,393.160 kr.,566 kr.,89.930 kr.,129 kr.,"16,8 %",2.593 kr.,694 m²,3.779 m²,D,"Bajstrup Bygade 51A, 6360 Tinglev",54.905206,9.272124
https://www.ejendomstorvet.dk/investering/koebenhavns-omegn/gentofte/andre-typer/6c36ca3e-c221-4af8-8c25-2f6a111674c3,15.500.000 kr.,1.267.308 kr.,1.033 kr.,264.589 kr.,215 kr.,"6,4 %",12.642 kr.,1.226 m²,2.347 m²,Ikke krav om energimærke,"Mesterlodden 7, 2820 Gentofte",55.754566,12.509068
https://www.ejendomstorvet.dk/investering/nordjylland/aalborg/lager-produktion/33d0df78-4c92-4400-9864-4518159a8a03,5.800.000 kr.,334.833 kr.,412 kr.,74.030 kr.,91 kr.,"4,5 %",7.142 kr.,812 m²,2.500 m²,D,"Sundsholmen 19, 9400 Nørresundby",57.066591,9.952736
https://www.ejendomstorvet.dk/investering/nordjylland/aalborg/andre-typer/a3fe73af-6e86-471e-9679-2fbf9acc160b,5.800.000 kr.,334.833 kr.,412 kr.,74.030 kr.,91 kr.,"4,5 %",7.142 kr.,812 m²,2.500 m²,D,"Sundsholmen 19, 9400 Nørresundby",57.066591,9.952736
https://www.ejendomstorvet.dk/investering/vest-og-sydsjaelland/guldborgsund/lager-produktion/29a3a058-10ed-4d14-8829-5f2c7038ef6e,2.295.000 kr.,226.586 kr.,256 kr.,15.872 kr.,17 kr.,"9,0 %",2.596 kr.,884 m²,6.610 m²,Ikke krav om energimærke,"Håndværkervænget 20, 4873 Væggerløse",54.718545,11.927397
https://www.ejendomstorvet.dk/investering/oestjylland/norddjurs/detailhandel-butik/0f5f8465-2d34-47c2-b4bc-d1cd69b2b7f9,2.800.000 kr.,287.400 kr.,333 kr.,63.893 kr.,74 kr.,"8,1 %",3.244 kr.,863 m²,2.794 m²,C,"Trekanten 4, 8500 Grenaa",56.393254,10.877435
https://www.ejendomstorvet.dk/investering/vest-og-sydsjaelland/vordingborg/grunde/50f74205-5897-44b4-978f-24be1c4bcff9,3.200.000 kr.,142.541 kr.,"-8,0 %",,,,,15.891 m²,Ikke krav om energimærke,Ikke krav om energimærke,"Sydhavnsvej 9, 4760 Vordingborg",54.996366,11.895017
https://www.ejendomstorvet.dk/investering/nordjylland/frederikshavn/andre-typer/6ec367c9-6692-46b5-b9b5-c43c707db99b,5.725.000 kr.,559.084 kr.,292 kr.,171.811 kr.,90 kr.,"7,2 %",2.998 kr.,1.909 m²,2.479 m²,C,"Havnegade 10, 3, 9900 Frederikshavn",,
https://www.ejendomstorvet.dk/investering/sydjylland/kolding/boligudlejning/dfc15475-c083-4dd4-ac20-c138507c7907,4.000.000 kr.,302.232 kr.,430 kr.,65.875 kr.,93 kr.,"6,0 %",5.698 kr.,702 m²,3.500 m²,C,"Bavnevej 20, 6580 Vamdrup",55.42627,9.29519
https://www.ejendomstorvet.dk/investering/sydjylland/haderslev/boligudlejning/724629e3-9119-4edc-bc2c-3175af424051,6.995.000 kr.,769.200 kr.,615 kr.,214.990 kr.,172 kr.,"8,2 %",5.600 kr.,1.249 m²,6.716 m²,D,"Bjerning Hovedvej 74, 6100 Haderslev, 6100 Haderslev",,
https://www.ejendomstorvet.dk/investering/oestjylland/aarhus/lager-produktion/47a73f83-6fc6-44ce-89a2-b0b09f9f3754,48.000.000 kr.,3.216.419 kr.,450 kr.,236.297 kr.,33 kr.,"6,3 %",6.725 kr.,7.137 m²,23.894 m²,A10,"Stormosevej 20, 8361 Hasselager",56.101469,10.085687
https://www.ejendomstorvet.dk/investering/nordsjaelland/helsingoer/andre-typer/71cd6a44-344d-4bc0-a6dd-3ffb171b9bec,3.500.000 kr.,16.492 kr.,100 kr.,"0,0 %",21.341 kr.,,,164 m²,1.703 m²,D,"Møllevej 11, 3140 Ålsgårde",56.078649,12.523292
https://www.ejendomstorvet.dk/investering/nordjylland/frederikshavn/detailhandel-butik/8875d56b-c0b2-42be-bbe3-b4ea9f5e2a9f,24.000.000 kr.,1.997.476 kr.,656 kr.,140.450 kr.,46 kr.,"7,8 %",7.884 kr.,3.044 m²,11.260 m²,C,"Hjørringvej 171A, 9900 Frederikshavn",57.445722,10.499255
https://www.ejendomstorvet.dk/investering/oestjylland/silkeborg/grunde/ae57bc65-c454-447b-9a55-4b266ebcb1ba,5.650.000 kr.,44.148 kr.,"-0,8 %",,,,,31.549 m²,A15,A15,"Hårup Bygade 6, 8600 Silkeborg",56.153479,9.643632
https://www.ejendomstorvet.dk/investering/sydjylland/esbjerg/andre-typer/cb7c4969-48d1-433f-86f1-778f904e4d42,2.100.000 kr.,251.000 kr.,699 kr.,63.705 kr.,177 kr.,"9,0 %",5.849 kr.,359 m²,2.100 m²,E,"Smedevej 15, 6710 Esbjerg V",55.50611,8.418226
https://www.ejendomstorvet.dk/investering/fyn/assens/boligudlejning/5d9e2af1-c365-4ca8-bd6a-3ee791d6bfe2,4.475.000 kr.,543.432 kr.,343 kr.,168.830 kr.,106 kr.,"8,5 %",2.826 kr.,1.583 m²,2.817 m²,F,"Algade 31, 5683 Haarby",55.223287,10.124449
https://www.ejendomstorvet.dk/investering/sydjylland/vejle/detailhandel-butik/7afaef1e-34eb-41d4-9b7e-465dbaa53a7e,31.750.000 kr.,2.233.767 kr.,655 kr.,316.283 kr.,92 kr.,"6,1 %",9.310 kr.,3.410 m²,7.970 m²,D,"Damhaven 7, 7100 Vejle",55.704183,9.527708
https://www.ejendomstorvet.dk/investering/vest-og-sydsjaelland/vordingborg/detailhandel-butik/20e93613-b70d-419c-b06a-07f217112126,4.500.000 kr.,92.957 kr.,144 kr.,"8,6 %",6.998 kr.,,,643 m²,2.859 m²,C,"Vævergangen 4, 4760 Vordingborg",55.011386,11.909933
https://www.ejendomstorvet.dk/investering/vest-og-sydsjaelland/guldborgsund/boligudlejning/71d2c920-9bf7-4091-97de-cf8432c95a5e,34.000.000 kr.,2.404.516 kr.,1.215 kr.,418.114 kr.,211 kr.,"5,9 %",17.180 kr.,1.979 m²,1.740 m²,B,"Jernbanegade 34A, 4800 Nykøbing F",54.765654,11.873735
https://www.ejendomstorvet.dk/investering/nordjylland/frederikshavn/detailhandel-butik/54db1330-97d8-43b6-8621-4b396bc3b71d,10.900.000 kr.,1.350.340 kr.,527 kr.,225.274 kr.,87 kr.,"10,9 %",4.254 kr.,2.562 m²,2.448 m²,C,"Skandiatorv 4, 9900 Frederikshavn",57.436522,10.53649
https://www.ejendomstorvet.dk/investering/sydjylland/aabenraa/detailhandel-butik/8bd174b8-90ce-4143-8174-3d89a838ae02,9.900.000 kr.,806.500 kr.,403 kr.,59.427 kr.,29 kr.,"7,7 %",4.954 kr.,1.998 m²,10.455 m²,A10,"Omfartsvejen 3, 6330 Padborg",54.834119,9.341971
https://www.ejendomstorvet.dk/investering/oestjylland/randers/andre-typer/9b9586cf-14d8-4a2f-a48c-3d2847098291,34.000.000 kr.,3.023.861 kr.,582 kr.,293.750 kr.,56 kr.,"8,0 %",6.549 kr.,5.191 m²,3.146 m²,E,"Hospitalsgade 13 m.fl., 8900 Randers C",,
https://www.ejendomstorvet.dk/investering/oestsjaelland/roskilde/boligudlejning/477bbc17-cd6b-458b-9e68-c93ab24d95e5,"0,0 %",,,,,,,2.563 m²,2.500 m²,Ikke krav om energimærke,"Bistrup Alle 47, 4000 Roskilde",55.6525955,12.0646023
https://www.ejendomstorvet.dk/investering/vest-og-sydsjaelland/naestved/boligudlejning/71219bf4-b56a-4b04-a9af-a9d6a348f3d2,141.000.000 kr.,8.458.285 kr.,1.426 kr.,1.236.158 kr.,208 kr.,"5,2 %",23.785 kr.,5.928 m²,15.168 m²,A20,"Magledalen 10, 4700 Næstved",55.257361,11.77351
https://www.ejendomstorvet.dk/investering/nordsjaelland/helsingoer/andre-typer/205e37ec-7f5a-4bcf-94a2-7d821388868c,22.000.000 kr.,1.260.822 kr.,1.690 kr.,284.107 kr.,380 kr.,"4,5 %",29.490 kr.,746 m²,1.565 m²,C,"Strandvejen 226A, ejer, 3070 Snekkersten",,
https://www.ejendomstorvet.dk/investering/vest-og-sydsjaelland/faxe/boligudlejning/473c2a24-4e33-4b96-b7d9-3bc8f82fc6a3,50.000.000 kr.,315.302 kr.,8 kr.,"0,0 %",1.369 kr.,,,36.500 m²,76.048 m²,C,"Bækvej 10, 4690 Haslev",55.332143,11.944297
https://www.ejendomstorvet.dk/investering/nordsjaelland/helsingoer/boligudlejning/bfea711f-1be7-476e-bdfe-c943d547a010,1.200.000 kr.,102.000 kr.,1.291 kr.,21.360 kr.,270 kr.,"6,7 %",15.189 kr.,79 m²,2.485 m²,Ikke krav om energimærke,"Klostermosevej 115B, st., 3000 Helsingør",,
https://www.ejendomstorvet.dk/investering/sydjylland/vejen/lager-produktion/c0dafd76-616e-4d55-afd9-afe98b94bb1d,3.950.000 kr.,399.360 kr.,198 kr.,66.919 kr.,33 kr.,"8,6 %",1.967 kr.,2.008 m²,6.488 m²,D,"Egevej 3, 6600 Vejen",55.476908,9.154679
https://www.ejendomstorvet.dk/investering/fyn/nordfyns/andre-typer/5536ab33-8a6a-4a26-9ac2-3d86ae9f7cc9,995.000 kr.,84.000 kr.,549 kr.,23.149 kr.,151 kr.,"6,0 %",6.503 kr.,153 m²,2.908 m²,Ikke krav om energimærke,"Fynsvej 1, 5400 Bogense",55.552033,10.086481
https://www.ejendomstorvet.dk/investering/oestjylland/favrskov/detailhandel-butik/402f2e9e-6b85-4ce1-929e-d2d88ac329ae,2.995.000 kr.,257.720 kr.,379 kr.,51.084 kr.,75 kr.,"7,0 %",4.404 kr.,680 m²,2.093 m²,D,"Kirkevej 65, 8370 Hadsten",56.333658,10.03406
https://www.ejendomstorvet.dk/investering/nordjylland/aalborg/lager-produktion/f231d8bb-b1d2-4061-b25d-9c21ee18337c,9.000.000 kr.,695.131 kr.,253 kr.,20.843 kr.,7 kr.,"7,5 %",3.284 kr.,2.740 m²,10.545 m²,D,"Anders Mørchs Vej 5, 9400 Nørresundby",57.073611,9.899831
https://www.ejendomstorvet.dk/investering/oestjylland/norddjurs/andre-typer/ee1a4933-d766-4f8a-891a-e6ad8ce1a2b0,2.150.000 kr.,227.250 kr.,458 kr.,48.840 kr.,98 kr.,"8,3 %",4.334 kr.,496 m²,3.487 m²,C,"Mortensensvej 36, 8963 Auning",56.431965,10.364458
https://www.ejendomstorvet.dk/investering/vest-og-sydsjaelland/slagelse/grunde/d6218734-54e3-4931-9dca-e2eb998054ef,5.000.000 kr.,"0,0 %",,,,,,26.966 m²,Ikke krav om energimærke,Ikke krav om energimærke,"Møllebakken 15, 4230 Skælskør",55.248225,11.276439
https://www.ejendomstorvet.dk/investering/sydjylland/esbjerg/boligudlejning/0b956691-e5e4-486e-a978-070b130d481f,26.995.000 kr.,1.645.889 kr.,1.007 kr.,410.900 kr.,251 kr.,"4,6 %",16.520 kr.,1.634 m²,1.753 m²,G,"Højlunds Alle 2, 6710 Esbjerg V",55.494386,8.412073
https://www.ejendomstorvet.dk/investering/vestjylland/ikast-brande/boligudlejning/05f7f286-9e8e-4b61-a8ab-e1be4f283de9,14.500.000 kr.,1.187.947 kr.,866 kr.,251.107 kr.,183 kr.,"6,5 %",10.576 kr.,1.371 m²,1.823 m²,C,"Storegade 47, 7330 Brande",55.941313,9.130453
https://www.ejendomstorvet.dk/investering/fyn/middelfart/andre-typer/f3e19056-70cf-4e73-a3d0-129e6a4d0eba,15.200.000 kr.,1.442.118 kr.,842 kr.,194.997 kr.,113 kr.,"8,3 %",8.878 kr.,1.712 m²,3.490 m²,D,"Østergade 46, 5500 Middelfart",55.503545,9.739089
https://www.ejendomstorvet.dk/investering/vest-og-sydsjaelland/stevns/grunde/3862f40f-744b-49a3-b78e-0dcf4b0279e1,1.995.000 kr.,"0,0 %",,,,,,4.771 m²,Ikke krav om energimærke,Ikke krav om energimærke,"Bjælkerupvej 112, 4660 Store Heddinge",55.321765,12.371412
https://www.ejendomstorvet.dk/investering/vest-og-sydsjaelland/odsherred/lager-produktion/1b5dff73-b18a-4412-8c96-afb224e0459a,7.900.000 kr.,864.383 kr.,541 kr.,105.605 kr.,66 kr.,"9,9 %",4.946 kr.,1.597 m²,5.267 m²,D,"Industrivangen 5, 4550 Asnæs",55.80994,11.509408
https://www.ejendomstorvet.dk/investering/nordjylland/broenderslev/boligudlejning/90d06adb-df58-4ad7-b888-40d2c8d1fa64,15.350.000 kr.,879.900 kr.,1.244 kr.,111.500 kr.,157 kr.,"5,1 %",21.711 kr.,707 m²,2.719 m²,A15,"Markedsbakken 55-67, 9320 Hjallerup",,
https://www.ejendomstorvet.dk/investering/nordjylland/frederikshavn/boligudlejning/40a022fc-8991-40f4-bc56-f3cae890d37c,32.000.000 kr.,1.902.645 kr.,1.034 kr.,292.967 kr.,159 kr.,"5,1 %",17.391 kr.,1.840 m²,3.572 m²,A15,"Højrupsvej 23A, 9900 Frederikshavn",57.431344,10.515195
https://www.ejendomstorvet.dk/investering/oestjylland/randers/boligudlejning/1208fadb-ba66-4712-bfcf-c58cb753c7bf,2.200.000 kr.,161.752 kr.,608 kr.,52.890 kr.,198 kr.,"5,0 %",8.270 kr.,266 m²,1.822 m²,C,"Landsbygaden 23, 8870 Langå",56.436579,9.941619
https://www.ejendomstorvet.dk/investering/oestjylland/horsens/boligudlejning/790002be-1fe7-4cd7-a9cd-dc9f0b731283,4.700.000 kr.,399.180 kr.,988 kr.,153.428 kr.,379 kr.,"5,3 %",11.633 kr.,404 m²,3.164 m²,E,"Frederiksgade 9, 8700 Horsens",55.866524,9.849274
https://www.ejendomstorvet.dk/investering/vest-og-sydsjaelland/naestved/kontor/6a098c1c-4ff4-4e2a-a1eb-e2fa7a53cfd7,65.500.000 kr.,7.111.112 kr.,836 kr.,1.612.923 kr.,189 kr.,"8,5 %",7.702 kr.,8.504 m²,6.159 m²,B,"Ringstedgade 13, 4700 Næstved",55.233106,11.758886
https://www.ejendomstorvet.dk/investering/vest-og-sydsjaelland/naestved/kontor/28909441-4bd1-44f2-a36a-9cf5aba028ab,18.500.000 kr.,1.868.493 kr.,783 kr.,516.160 kr.,216 kr.,"7,5 %",7.760 kr.,2.384 m²,2.073 m²,C,"Ringstedgade 11, 4700 Næstved",55.232871,11.758597
https://www.ejendomstorvet.dk/investering/sydjylland/aabenraa/kontor/270bef65-a7a8-4feb-8194-384f580c03d7,27.500.000 kr.,1.893.958 kr.,636 kr.,136.174 kr.,45 kr.,"6,4 %",9.237 kr.,2.977 m²,4.529 m²,B,"H P Hanssens Gade 23, 6200 Aabenraa",55.045602,9.421332
https://www.ejendomstorvet.dk/investering/oestjylland/norddjurs/boligudlejning/3d9c1b90-5439-40e9-97d0-5130d7c8b40a,11.000.000 kr.,1.359.737 kr.,710 kr.,271.395 kr.,141 kr.,"10,3 %",5.744 kr.,1.915 m²,1.573 m²,C,"Nørregade 4A-14, 8500 Grenaa",56.4147841,10.8775005
https://www.ejendomstorvet.dk/investering/vest-og-sydsjaelland/guldborgsund/andre-typer/62269536-dbcb-4778-a084-e8782541770b,1.195.000 kr.,55.379 kr.,139 kr.,"-4,6 %",3.017 kr.,,,396 m²,3.145 m²,E,"Orehoved Langgade 49, 4840 Nørre Alslev",54.946752,11.861304
https://www.ejendomstorvet.dk/investering/sydjylland/soenderborg/boligudlejning/31d309bf-5816-4093-b83c-f6edbb9acc36,77.250.000 kr.,892.494 kr.,172 kr.,"6,5 %",14.930 kr.,,,5.174 m²,8.749 m²,D,"Stengeroddevej 4, 6300 Gråsten",54.920278,9.597781
https://www.ejendomstorvet.dk/investering/sydjylland/soenderborg/boligudlejning/f324131c-4d4b-4b5a-bd39-3c50f4adb577,57.500.000 kr.,559.114 kr.,172 kr.,"7,0 %",17.790 kr.,,,3.232 m²,13.621 m²,E,"Torvet 5A, 6400 Sønderborg",54.924529,9.820895
https://www.ejendomstorvet.dk/investering/vestjylland/herning/boligudlejning/6de0c6e3-4fe2-4857-bff8-54fc20ce7e21,9.350.000 kr.,653.860 kr.,821 kr.,88.764 kr.,111 kr.,"6,1 %",11.746 kr.,796 m²,2.422 m²,B,"Sinding Hovedgade 20A, 7400 Herning",56.2144,8.853144
https://www.ejendomstorvet.dk/investering/sydjylland/vejen/detailhandel-butik/e1bb2cc4-da4a-4438-a361-8783a8743f5a,2.300.000 kr.,447.061 kr.,393 kr.,146.403 kr.,128 kr.,"15,8 %",2.024 kr.,1.136 m²,3.666 m²,B,"Søndergade 36, 6600 Vejen",55.472082,9.135578
https://www.ejendomstorvet.dk/investering/nordjylland/hjoerring/andre-typer/5774bf5d-138b-4696-9e4f-722335f64385,4.400.000 kr.,593.101 kr.,502 kr.,148.364 kr.,125 kr.,"10,5 %",3.728 kr.,1.180 m²,4.025 m²,C,"Vandværksvej 24, 9800 Hjørring",57.4407,10.004718
https://www.ejendomstorvet.dk/investering/nordjylland/hjoerring/andre-typer/f331f586-0b66-4583-8819-dd81581c3bc6,18.300.000 kr.,1.711.335 kr.,785 kr.,254.946 kr.,116 kr.,"8,0 %",8.394 kr.,2.180 m²,1.796 m²,B,"Østergade 12A, 9800 Hjørring",57.459243,9.98889
https://www.ejendomstorvet.dk/investering/nordjylland/hjoerring/boligudlejning/044dc07a-d339-431f-8d1c-7002261fe2b6,1.750.000 kr.,171.485 kr.,630 kr.,47.774 kr.,175 kr.,"7,1 %",6.433 kr.,272 m²,1.951 m²,A10,"Hjørringvej 527, 9800 Hjørring",57.454974,10.114032
https://www.ejendomstorvet.dk/investering/oestjylland/silkeborg/hotel-restaurant/d883fbf7-e05f-4cf2-b47a-412ff66aa129,84.000.000 kr.,7.039.662 kr.,1.456 kr.,1.026.084 kr.,212 kr.,"7,2 %",17.380 kr.,4.833 m²,47.175 m²,Ikke krav om energimærke,"Udgårdsvej 2, 8600 Silkeborg",56.170794,9.514418
https://www.ejendomstorvet.dk/investering/sydjylland/aabenraa/lager-produktion/58fd800d-12d5-4d2a-8f0a-2f54b7961704,19.500.000 kr.,1.580.844 kr.,2.153 kr.,76.347 kr.,104 kr.,"7,8 %",26.566 kr.,734 m²,28.284 m²,A15,"Thorsvej 12, 6330 Padborg",54.83081,9.33895
https://www.ejendomstorvet.dk/investering/sydjylland/aabenraa/lager-produktion/72286f4f-6798-4d78-a644-4691e7255d0e,67.500.000 kr.,5.330.028 kr.,647 kr.,53.300 kr.,6 kr.,"8,0 %",8.196 kr.,8.235 m²,46.144 m²,A15,"Omfartsvejen 1, 6330 Padborg",54.833639,9.341271
https://www.ejendomstorvet.dk/investering/fyn/langeland/andre-typer/4ac5a154-78a9-4342-a18d-aea26d27108a,1.875.000 kr.,212.400 kr.,221 kr.,46.635 kr.,48 kr.,"8,7 %",1.955 kr.,959 m²,3.299 m²,D,"Spodsbjergvej 85A, 5900 Rudkøbing",54.936253,10.725075
https://www.ejendomstorvet.dk/investering/nordjylland/aalborg/andre-typer/2fed2a35-bd6a-4b22-854f-c251d2506741,34.100.000 kr.,1.851.182 kr.,1.516 kr.,290.420 kr.,237 kr.,"4,8 %",27.927 kr.,1.221 m²,2.311 m²,A10,"Østerbro 39B, 9000 Aalborg",57.046192,9.938351
https://www.ejendomstorvet.dk/investering/sydjylland/haderslev/boligudlejning/de916355-dc22-4739-983d-e44dcb7f0129,17.925.000 kr.,1.290.957 kr.,847 kr.,205.611 kr.,135 kr.,"6,2 %",11.769 kr.,1.523 m²,2.639 m²,E,"Laurids Skaus Gade 26, 6100 Haderslev",55.254245,9.483701
https://www.ejendomstorvet.dk/investering/oestjylland/norddjurs/lager-produktion/813f65e3-7384-4e68-ba11-9d1df1237f06,475.000 kr.,16.271 kr.,17 kr.,"0,0 %",508 kr.,,,934 m²,2.313 m²,D,"Havnevej 185, 8500 Grenaa",56.411389,10.911523
https://www.ejendomstorvet.dk/investering/oestjylland/aarhus/detailhandel-butik/f4546848-6a27-4242-bb03-a92e5e348fa8,10.500.000 kr.,856.417 kr.,1.141 kr.,121.496 kr.,161 kr.,"7,0 %",14.000 kr.,750 m²,2.063 m²,C,"Holme Møllevej 49, 8260 Viby J",56.122334,10.172596
https://www.ejendomstorvet.dk/investering/oestjylland/favrskov/lager-produktion/aa60bb3c-575c-42a5-ba17-17afafb8f43a,1.995.000 kr.,235.104 kr.,138 kr.,93.890 kr.,55 kr.,"7,0 %",1.175 kr.,1.697 m²,4.910 m²,Ikke krav om energimærke,"Vestergade 24, 8860 Ulstrup",56.391262,9.78514
https://www.ejendomstorvet.dk/investering/sydjylland/aabenraa/boligudlejning/7fdba868-a109-4ff0-ad75-285fc2f71ca0,1.999.000 kr.,240.384 kr.,783 kr.,73.108 kr.,238 kr.,"8,4 %",6.511 kr.,307 m²,4.196 m²,G,"Hærvejen 129, 6230 Rødekro",55.02965,9.322234
https://www.ejendomstorvet.dk/investering/oestsjaelland/roskilde/boligudlejning/dfaa35a6-f484-4892-af1e-2e5d7dbf95f2,31.500.000 kr.,1.304.821 kr.,1.300 kr.,697.106 kr.,695 kr.,"1,9 %",31.405 kr.,1.003 m²,2.381 m²,D,"Jernbanegade 19, 4000 Roskilde",55.637496,12.080661
https://www.ejendomstorvet.dk/investering/vest-og-sydsjaelland/faxe/boligudlejning/3c5fcc9b-61fd-4211-9198-a12dd119de85,4.200.000 kr.,273.600 kr.,445 kr.,355.322 kr.,578 kr.,"-2,0 %",6.840 kr.,614 m²,3.172 m²,F,"Spjellerupvej 1, 4653 Karise",55.273474,12.224557
https://www.ejendomstorvet.dk/investering/vestjylland/skive/boligudlejning/aa2cbc19-a406-4943-b8c8-def36fe2677f,5.250.000 kr.,471.450 kr.,551 kr.,106.492 kr.,124 kr.,"7,0 %",6.140 kr.,855 m²,1.765 m²,G,"Norgaardsvej 35A & B, 7800 Skive",56.5739037,9.022649
https://www.ejendomstorvet.dk/investering/koebenhavns-omegn/hvidovre/andre-typer/85757461-afd2-4638-b8be-85fec859039f,11.950.000 kr.,906.000 kr.,938 kr.,266.407 kr.,276 kr.,"5,3 %",12.383 kr.,965 m²,1.730 m²,C,"Baunebakkevej 4 og 6, 2650 Hvidovre",,
https://www.ejendomstorvet.dk/investering/fyn/odense/detailhandel-butik/b065500e-1a5d-4279-98f5-acd9c4e71858,11.250.000 kr.,883.620 kr.,875 kr.,85.675 kr.,84 kr.,"7,3 %",11.149 kr.,1.009 m²,2.599 m²,A10,"Bogensevej 62, 5270 Odense N",55.418305,10.359226
https://www.ejendomstorvet.dk/investering/vestjylland/holstebro/lager-produktion/62426728-b9a4-4883-8127-cca90387bdde,7.995.000 kr.,1.113.847 kr.,149 kr.,307.964 kr.,41 kr.,"10,4 %",1.074 kr.,7.443 m²,37.244 m²,Ikke krav om energimærke,"Skivevej 24A, 7830 Vinderup",56.503678,8.799941
https://www.ejendomstorvet.dk/investering/sydjylland/haderslev/lager-produktion/02367ff7-9ce3-4eb5-b091-0628cee069ec,105.000.000 kr.,8.844.371 kr.,453 kr.,1.223.435 kr.,62 kr.,"7,5 %",5.383 kr.,19.505 m²,100.053 m²,D,"Tøndervej 7, 6500 Vojens",55.197113,9.328837
https://www.ejendomstorvet.dk/investering/nordsjaelland/fredensborg/andre-typer/75751186-46e6-4d0d-8687-13649ee23488,14.500.000 kr.,42.980 kr.,38 kr.,"-0,3 %",13.039 kr.,,,1.112 m²,2.239 m²,Ikke krav om energimærke,"Helsingørsvej 2, 3480 Fredensborg",55.977933,12.402263
https://www.ejendomstorvet.dk/investering/oestjylland/horsens/andre-typer/8307ab56-b674-4122-a251-8483398b1e8c,47.750.000 kr.,3.775.518 kr.,836 kr.,776.405 kr.,172 kr.,"6,3 %",10.580 kr.,4.513 m²,1.621 m²,D,"Jessensgade 5, 8700 Horsens",55.862108,9.844486
https://www.ejendomstorvet.dk/investering/oestsjaelland/solroed/kontor/f8434c54-9364-46d5-9a72-1ca5b298274e,16.900.000 kr.,1.307.553 kr.,650 kr.,163.399 kr.,81 kr.,"6,8 %",8.407 kr.,2.010 m²,7.615 m²,Ikke krav om energimærke,"Kildebrogårdsvej 11A, 4622 Havdrup",55.549029,12.126483
https://www.ejendomstorvet.dk/investering/sydjylland/soenderborg/detailhandel-butik/d8d6c634-dee4-40a4-acfa-7bf0663ff036,7.800.000 kr.,682.993 kr.,435 kr.,152.262 kr.,96 kr.,"7,0 %",4.968 kr.,1.570 m²,4.756 m²,B,"Kærvej 90, 6400 Sønderborg",54.923908,9.794921
https://www.ejendomstorvet.dk/investering/vestjylland/holstebro/andre-typer/e43d45b7-dece-4aed-82ac-14b23885b28b,198.340 kr.,156 kr.,"0,0 %",,,,,1.271 m²,30.921 m²,E,"Stokholmvej 6, 7830 Vinderup",56.486039,8.838468
https://www.ejendomstorvet.dk/investering/nordsjaelland/hilleroed/kontor/406c5db3-4606-403d-9259-e7fc1602e982,20.475.000 kr.,1.839.416 kr.,1.068 kr.,581.715 kr.,337 kr.,"6,2 %",11.890 kr.,1.722 m²,5.637 m²,C,"Milnersvej 35B, 3400 Hillerød",55.922871,12.301474
https://www.ejendomstorvet.dk/investering/oestjylland/hedensted/lager-produktion/3b390174-be1b-4f80-83cb-e9b972abfd8d,37.000.000 kr.,2.700.000 kr.,451 kr.,163.350 kr.,27 kr.,"7,0 %",6.183 kr.,5.984 m²,22.951 m²,A10,"Helge Nielsens Alle 5, 8723 Løsning",55.801888,9.675721
https://www.ejendomstorvet.dk/investering/sydjylland/fredericia/lager-produktion/dfa43daa-caaf-4b5b-b106-a1581b575ea6,5.995.000 kr.,412.238 kr.,473 kr.,50.406 kr.,57 kr.,"6,7 %",6.890 kr.,870 m²,4.999 m²,C,"Industrivej 22, 7000 Fredericia",55.589974,9.756337
https://www.ejendomstorvet.dk/investering/sydjylland/kolding/boligudlejning/1bd21304-3218-4473-bf8c-0cd39b2fea17,3.250.000 kr.,380.244 kr.,543 kr.,122.216 kr.,174 kr.,"8,1 %",4.649 kr.,699 m²,2.965 m²,C,"Egholtvej 30, 6640 Lunderskov",55.529742,9.274126
https://www.ejendomstorvet.dk/investering/vestjylland/ikast-brande/lager-produktion/eff93b3a-c0db-4a5c-841a-9a5e79cd41d0,5.500.000 kr.,534.000 kr.,414 kr.,116.743 kr.,90 kr.,"7,7 %",4.266 kr.,1.289 m²,3.370 m²,B,"Industrivej 16 og 18, 7430 Ikast",,
https://www.ejendomstorvet.dk/investering/fyn/faaborg-midtfyn/andre-typer/be5e7f9a-c8d0-4c23-98ec-3ee0605ac9fd,700.000 kr.,176.600 kr.,243 kr.,91.668 kr.,126 kr.,"12,1 %",966 kr.,724 m²,1.690 m²,G,"Østerågade 5, 5672 Broby",55.254557,10.231914
https://www.ejendomstorvet.dk/investering/sydjylland/haderslev/boligudlejning/69064d08-5582-4357-833b-4a792c8c5621,4.500.000 kr.,410.900 kr.,775 kr.,142.066 kr.,268 kr.,"6,1 %",8.490 kr.,530 m²,6.704 m²,D,"Klosteret 7A-C, 6100 Haderslev",55.2485344,9.4870523
https://www.ejendomstorvet.dk/investering/fyn/assens/lager-produktion/578759e8-bbb7-4121-b501-451d754a8c7c,25.000.000 kr.,2.428.280 kr.,242 kr.,493.196 kr.,49 kr.,"7,9 %",2.492 kr.,10.032 m²,21.172 m²,Ikke krav om energimærke,"Glasvænget 9, 5492 Vissenbjerg",55.390978,10.14254
https://www.ejendomstorvet.dk/investering/oestjylland/silkeborg/andre-typer/f0a13822-18a0-4eb4-aa4d-3a14262f673b,8.458.000 kr.,758.455 kr.,637 kr.,123.238 kr.,103 kr.,"7,5 %",7.107 kr.,1.190 m²,2.755 m²,B,"Navervej 3, 8600 Silkeborg",56.182568,9.536225
https://www.ejendomstorvet.dk/investering/sydjylland/vejle/kontor/dbca09a0-0ee0-479f-b09e-4dcb7abd3bc6,22.000.000 kr.,1.606.640 kr.,631 kr.,230.239 kr.,90 kr.,"7,1 %",8.651 kr.,2.543 m²,14.297 m²,C,"Niels Finsensvej 18, 7100 Vejle",55.727404,9.566566
https://www.ejendomstorvet.dk/investering/koebenhavns-omegn/ballerup/boligudlejning/5a703a11-83fe-476e-9983-52fba7ce7a73,9.500.000 kr.,602.400 kr.,1.632 kr.,127.058 kr.,344 kr.,"5,1 %",25.745 kr.,369 m²,1.639 m²,D,"Lindbjergvej 8A, 2750 Ballerup",55.737901,12.345408
https://www.ejendomstorvet.dk/investering/nordjylland/hjoerring/andre-typer/b1cecc9f-8fd2-4182-ade1-caa6af674ac9,4.950.000 kr.,420.000 kr.,434 kr.,44.189 kr.,45 kr.,"7,5 %",5.118 kr.,967 m²,2.509 m²,C,"Hestkærvej 4, 9800 Hjørring",57.456904,10.012025
https://www.ejendomstorvet.dk/investering/nordsjaelland/helsingoer/andre-typer/8161da91-4e68-4415-a15d-87bf38c357e2,7.250.000 kr.,832.998 kr.,779 kr.,145.713 kr.,136 kr.,"9,4 %",6.788 kr.,1.068 m²,8.027 m²,E,"Kongevejen 299C, 3060 Espergærde",56.009066,12.536218
https://www.ejendomstorvet.dk/investering/sydjylland/kolding/lager-produktion/3e6d267f-bad8-4078-9ceb-9156916247cc,4.300.000 kr.,362.556 kr.,527 kr.,80.526 kr.,117 kr.,"6,8 %",6.259 kr.,687 m²,2.789 m²,Ikke krav om energimærke,"Platinvej 57, 6000 Kolding",55.508041,9.438631
https://www.ejendomstorvet.dk/investering/sydjylland/kolding/lager-produktion/4edf4a0a-760a-4c3f-9c09-782dbc1dcce7,12.795.000 kr.,873.929 kr.,463 kr.,125.294 kr.,66 kr.,"6,5 %",6.791 kr.,1.884 m²,9.700 m²,Ikke krav om energimærke,"Trianglen 27A, 6000 Kolding",55.532725,9.455577
https://www.ejendomstorvet.dk/investering/sydjylland/vejle/lager-produktion/3b10cd1f-6397-421f-9c30-c9fabf0113dd,41.400.000 kr.,3.473.665 kr.,489 kr.,402.459 kr.,56 kr.,"7,7 %",5.828 kr.,7.103 m²,15.000 m²,C,"Ferrarivej 14, 7100 Vejle",55.671781,9.59463
https://www.ejendomstorvet.dk/investering/oestjylland/horsens/lager-produktion/1132a174-8fb5-44b6-a233-57f5f7103fb5,25.300.000 kr.,1.853.737 kr.,444 kr.,60.000 kr.,14 kr.,"7,2 %",6.068 kr.,4.169 m²,19.854 m²,B,"Vrøndingvej 4, 8700 Horsens",55.88431,9.782073
https://www.ejendomstorvet.dk/investering/vest-og-sydsjaelland/faxe/andre-typer/ab5ab0cc-f122-497d-8972-bd9e697f43ee,1.500.000 kr.,19.787 kr.,37 kr.,"-1,3 %",2.879 kr.,,,521 m²,2.074 m²,D,"Årløsevej 2, 4690 Haslev",55.374541,11.970471
https://www.ejendomstorvet.dk/investering/nordjylland/aalborg/lager-produktion/f68fb197-1539-415d-b65c-f72b9bd98469,27.000.000 kr.,1.698.849 kr.,635 kr.,76.800 kr.,28 kr.,"6,2 %",10.104 kr.,2.672 m²,11.209 m²,A15,"Strømmen 2D, 9400 Nørresundby",57.083631,9.960211
https://www.ejendomstorvet.dk/investering/nordjylland/mariagerfjord/boligudlejning/c52925ea-a058-4a48-886a-df77434d7b8d,3.850.000 kr.,325.479 kr.,841 kr.,71.939 kr.,185 kr.,"6,4 %",9.948 kr.,387 m²,5.622 m²,C,"Fuglsangsgade 1A, 9550 Mariager",56.650404,9.982827
https://www.ejendomstorvet.dk/investering/nordjylland/mariagerfjord/boligudlejning/3c858a1f-9221-4474-b50d-cc865af2b79c,8.100.000 kr.,743.842 kr.,875 kr.,184.438 kr.,216 kr.,"6,7 %",9.529 kr.,850 m²,5.622 m²,B,"Havnegade 18A, 9550 Mariager",56.651577,9.9784
https://www.ejendomstorvet.dk/investering/nordjylland/mariagerfjord/andre-typer/c28b4fcb-d358-4710-82ed-e423b2499c89,4.400.000 kr.,413.216 kr.,740 kr.,93.320 kr.,167 kr.,"7,1 %",7.885 kr.,558 m²,5.622 m²,D,"Havnegade 12A, 9550 Mariager",56.65182,9.98032
https://www.ejendomstorvet.dk/investering/nordjylland/mariagerfjord/andre-typer/a2b5e124-8872-4a1b-af4e-534f2f53293c,4.900.000 kr.,465.993 kr.,746 kr.,108.364 kr.,173 kr.,"7,1 %",7.852 kr.,624 m²,5.622 m²,F,"Havnegade 13A, 9550 Mariager",56.65161,9.97974
https://www.ejendomstorvet.dk/investering/nordjylland/mariagerfjord/andre-typer/3507908d-ded1-4a04-8d98-aff04b0daeed,3.200.000 kr.,304.880 kr.,519 kr.,75.884 kr.,129 kr.,"7,0 %",5.451 kr.,587 m²,5.622 m²,C,"Havnegade 9A, 9550 Mariager",56.651557,9.98019
https://www.ejendomstorvet.dk/investering/koebenhavns-omegn/gladsaxe/lager-produktion/6524a333-eada-4f05-991c-e32360c42b07,12.650.000 kr.,982.000 kr.,976 kr.,137.000 kr.,136 kr.,"6,8 %",12.574 kr.,1.006 m²,1.509 m²,Ikke krav om energimærke,"Laurentsvej 35, 2880 Bagsværd",55.757512,12.452578
https://www.ejendomstorvet.dk/investering/sydjylland/varde/lager-produktion/7f780519-7174-412b-92db-2e65d1c9289e,32.400.000 kr.,2.681.000 kr.,279 kr.,424.809 kr.,44 kr.,"7,6 %",3.382 kr.,9.580 m²,22.444 m²,B,"Haulundvej 16, 6870 Ølgod",55.822726,8.60017
https://www.ejendomstorvet.dk/investering/koebenhavns-omegn/hoeje-taastrup/lager-produktion/11ec6da0-bc88-4390-80bf-fe537eabfcaa,21.000.000 kr.,1.721.349 kr.,803 kr.,381.846 kr.,178 kr.,"6,7 %",9.808 kr.,2.141 m²,7.685 m²,B,"Baldersbuen 38, 2640 Hedehusene",55.653912,12.212782
https://www.ejendomstorvet.dk/investering/vest-og-sydsjaelland/odsherred/andre-typer/0f7a9c61-15e8-4472-abcb-19aa1158bf99,2.500.000 kr.,329.400 kr.,170 kr.,106.882 kr.,55 kr.,"8,9 %",1.291 kr.,1.935 m²,57.405 m²,E,"Asmindrupvej 46, 4572 Nørre Asmindrup",55.891621,11.623339
https://www.ejendomstorvet.dk/investering/fyn/odense/kontor/9e5348a1-2604-4448-b08c-6dc1176adfea,40.000.000 kr.,2.769.854 kr.,634 kr.,611.790 kr.,140 kr.,"5,8 %",9.170 kr.,4.362 m²,1.532 m²,D,"Vindegade 72, 5000 Odense C",55.397876,10.381456
https://www.ejendomstorvet.dk/investering/sydjylland/billund/andre-typer/36947121-dc54-4159-b2ff-f8ccd7129296,3.100.000 kr.,330.000 kr.,791 kr.,61.204 kr.,146 kr.,"8,6 %",7.434 kr.,417 m²,2.094 m²,D,"Jorden Rundt 2, 7200 Grindsted",55.752047,8.927223
https://www.ejendomstorvet.dk/investering/fyn/odense/lager-produktion/0b375187-e522-4fde-8dee-0c71002ade93,5.750.000 kr.,560.718 kr.,727 kr.,128.293 kr.,166 kr.,"7,7 %",7.457 kr.,771 m²,1.537 m²,F,"Klokkestøbervej 25, 5230 Odense M",55.380057,10.418859
https://www.ejendomstorvet.dk/investering/fyn/middelfart/boligudlejning/7b28d66b-8ec0-452c-94e1-e037a5447abf,11.500.000 kr.,586.623 kr.,616 kr.,148.820 kr.,156 kr.,"3,9 %",12.092 kr.,951 m²,2.134 m²,C,"Gl Strandvej 79, 5500 Middelfart",55.515523,9.759422
https://www.ejendomstorvet.dk/investering/byen-koebenhavn/frederiksberg/kontor/22c5debb-cd6e-4356-8338-9546ade69889,189.263 kr.,25 kr.,"0,0 %",,,,,7.317 m²,3.152 m²,D,"Kronprinsesse Sofies Vej 35A, 2000 Frederiksberg",55.690712,12.53491
https://www.ejendomstorvet.dk/investering/vest-og-sydsjaelland/naestved/grunde/024c3a51-4433-4994-bf79-aa2681bc87e1,6.200.000 kr.,14.000 kr.,"0,0 %",,,,,3.370 m²,Ikke krav om energimærke,Ikke krav om energimærke,"Kornbakken 9A, 4700 Næstved",55.234471,11.766374
https://www.ejendomstorvet.dk/investering/oestjylland/aarhus/lager-produktion/9753e27c-e108-474c-b918-30ab6416272d,75.000.000 kr.,5.233.673 kr.,530 kr.,1.009.933 kr.,102 kr.,"5,7 %",7.605 kr.,9.861 m²,19.969 m²,E,"Sommervej 23A, 8210 Aarhus V",56.172524,10.155028
https://www.ejendomstorvet.dk/investering/oestjylland/skanderborg/boligudlejning/5f7b4a44-6848-4ff0-bba8-4f2dea300e0e,5.900.000 kr.,380.580 kr.,935 kr.,46.464 kr.,114 kr.,"5,8 %",14.496 kr.,407 m²,1.531 m²,D,"Vestermosevej 2, 8660 Skanderborg",56.029411,9.885528
https://www.ejendomstorvet.dk/investering/koebenhavns-omegn/gladsaxe/boligudlejning/06531395-4fa8-4acc-a788-24d256d9f3b8,16.950.000 kr.,1.193.393 kr.,1.522 kr.,491.090 kr.,626 kr.,"4,3 %",21.619 kr.,784 m²,2.222 m²,D,"Kildebakkegårds Alle 71A, 2860 Søborg",55.741498,12.512718
https://www.ejendomstorvet.dk/investering/vest-og-sydsjaelland/guldborgsund/lager-produktion/51fbaf5f-3aa8-459e-ba6d-18a91a15f04a,2.695.000 kr.,322.000 kr.,512 kr.,36.976 kr.,58 kr.,"10,5 %",4.291 kr.,628 m²,4.134 m²,Ikke krav om energimærke,"Johs Haresvej 2, 4863 Eskilstrup",54.853999,11.878539
https://www.ejendomstorvet.dk/investering/nordjylland/mariagerfjord/boligudlejning/71c2521a-7e8c-4320-b7d7-0c8070ee95c9,5.649.000 kr.,527.484 kr.,879 kr.,149.835 kr.,249 kr.,"6,8 %",9.415 kr.,600 m²,2.313 m²,E,"Gl Skolevej 3A, 9500 Hobro",56.673537,9.848482
https://www.ejendomstorvet.dk/investering/fyn/assens/boligudlejning/1dd5b98f-e375-4212-93e2-0236000b5504,7.995.000 kr.,717.600 kr.,691 kr.,188.380 kr.,181 kr.,"6,8 %",7.702 kr.,1.038 m²,1.574 m²,C,"Bredgade 34-36, 5560 Aarup",55.3820247,10.0501232
https://www.ejendomstorvet.dk/investering/fyn/odense/kontor/f0447ec6-4163-4cfe-8d36-478061ced55a,4.400.000 kr.,78.295 kr.,125 kr.,"-1,7 %",7.028 kr.,,,626 m²,2.643 m²,F,"Ørbækvej 339A, 5220 Odense SØ",55.37069,10.446747
https://www.ejendomstorvet.dk/investering/byen-koebenhavn/koebenhavn/andre-typer/94766e2b-5178-4532-936c-7ad5f297fb60,12.000.000 kr.,814.712 kr.,857 kr.,204.863 kr.,215 kr.,"5,0 %",12.631 kr.,950 m²,1.600 m²,G,"Skjulhøj Allé 25-27, 2720 Vanløse",55.6947032,12.4821935
https://www.ejendomstorvet.dk/investering/sydjylland/billund/lager-produktion/83181ddd-054b-4c7c-8443-16f6bf945ebc,5.500.000 kr.,593.576 kr.,403 kr.,100.014 kr.,67 kr.,"9,2 %",3.736 kr.,1.472 m²,3.000 m²,D,"Kløvervej 32, 7190 Billund",55.719694,9.124246
https://www.ejendomstorvet.dk/investering/oestjylland/aarhus/kontor/eff3149f-9927-4932-94e6-33bddb824afb,42.500.000 kr.,2.933.673 kr.,1.007 kr.,963.502 kr.,330 kr.,"6,4 %",14.599 kr.,2.911 m²,9.355 m²,B,"Langdyssen 5, 8200 Aarhus N",56.218564,10.141801
https://www.ejendomstorvet.dk/investering/vest-og-sydsjaelland/slagelse/detailhandel-butik/5467150b-848b-44f1-b647-d69e8027487e,8.500.000 kr.,613.491 kr.,975 kr.,55.739 kr.,88 kr.,"7,0 %",13.513 kr.,629 m²,9.067 m²,C,"Japanvej 5, 4200 Slagelse",55.388327,11.326272
https://www.ejendomstorvet.dk/investering/nordjylland/frederikshavn/hotel-restaurant/3e9dad55-b288-4697-8275-604a979da91c,26.500.000 kr.,1.642.613 kr.,1.008 kr.,161.691 kr.,99 kr.,"5,8 %",16.267 kr.,1.629 m²,1.521 m²,C,"Nordkajen 4-10, 9990 Skagen",57.7179231,10.5858834
https://www.ejendomstorvet.dk/investering/sydjylland/fredericia/detailhandel-butik/beac7ad0-53b2-47b0-96dc-490b66f10aa9,1.750.000 kr.,157.800 kr.,529 kr.,41.067 kr.,137 kr.,"7,4 %",5.872 kr.,298 m²,3.349 m²,D,"Adelvej 21, 7000 Fredericia",55.534939,9.609229
https://www.ejendomstorvet.dk/investering/nordsjaelland/halsnaes/grunde/273ba107-4ced-42e4-83bb-b3050500248f,37.700.000 kr.,"0,0 %",,,,,,79.088 m²,Ikke krav om energimærke,Ikke krav om energimærke,"Ubberupvej 30, 3310 Ølsted",55.928868,12.071066
https://www.ejendomstorvet.dk/investering/sydjylland/esbjerg/boligudlejning/23933577-7f3d-4ff0-bba6-e2cd07504732,6.600.000 kr.,588.709 kr.,600 kr.,172.814 kr.,176 kr.,"6,4 %",6.727 kr.,981 m²,1.594 m²,C,"Nørrebrogade 108, 6700 Esbjerg",55.479107,8.460948
https://www.ejendomstorvet.dk/investering/vest-og-sydsjaelland/vordingborg/andre-typer/819fb81d-c0e8-40d8-9bca-aaa7498dbb86,7.000.000 kr.,"0,0 %",6.039 kr.,,,,,1.159 m²,3.092 m²,D,"Primulavej 5, 4760 Vordingborg",55.007882,11.919151
https://www.ejendomstorvet.dk/investering/vest-og-sydsjaelland/ringsted/kontor/f07eca5a-4c24-492c-94bf-15f9054bdab7,140.000.000 kr.,11.433.967 kr.,948 kr.,2.153.599 kr.,178 kr.,"8,1 %",11.610 kr.,12.058 m²,34.018 m²,D,"Nørretorv 2, 4100 Ringsted",55.449967,11.789037
https://www.ejendomstorvet.dk/investering/koebenhavns-omegn/albertslund/kontor/a368d51f-de01-4430-90db-17124643ae8f,13.900.000 kr.,1.117.375 kr.,691 kr.,183.186 kr.,113 kr.,"6,7 %",8.596 kr.,1.617 m²,3.004 m²,Ikke krav om energimærke,"Naverland 34, , 2600 Glostrup",55.679142,12.373625
https://www.ejendomstorvet.dk/investering/nordjylland/vesthimmerlands/boligudlejning/809d42ea-1625-4ff5-8339-cb886c10c755,4.100.000 kr.,556.443 kr.,649 kr.,208.832 kr.,243 kr.,"7,9 %",4.784 kr.,857 m²,1.870 m²,C,"Aagade 3A, 9620 Aalestrup",56.693466,9.495373
https://www.ejendomstorvet.dk/investering/nordjylland/vesthimmerlands/andre-typer/4f32fdc4-27bb-4f44-afde-20a24a5037f1,2.400.000 kr.,361.992 kr.,377 kr.,149.238 kr.,155 kr.,"8,4 %",2.500 kr.,960 m²,1.541 m²,D,"Vestergade 13, 9620 Aalestrup",56.693938,9.493808
https://www.ejendomstorvet.dk/investering/nordjylland/vesthimmerlands/boligudlejning/bd742d2e-df8c-40c1-ac8a-5b89c8e400a0,5.100.000 kr.,541.023 kr.,626 kr.,139.373 kr.,161 kr.,"7,6 %",5.902 kr.,864 m²,1.550 m²,C,"Borgergade 5, 9620 Aalestrup",56.694239,9.496361
https://www.ejendomstorvet.dk/investering/sydjylland/varde/grunde/0eb9b17b-6320-49c0-a394-ea95139cd14b,4.000.000 kr.,"0,0 %",,,,,,10.934 m²,Ikke krav om energimærke,Ikke krav om energimærke,"Brorsonparken 31-50, 6800 Varde",55.6306852,8.4827968
https://www.ejendomstorvet.dk/investering/byen-koebenhavn/koebenhavn/lager-produktion/9111a3ec-f8c2-4c30-8714-a9a5b632f478,21.000.000 kr.,2.148.026 kr.,1.644 kr.,643.612 kr.,492 kr.,"7,3 %",16.079 kr.,1.306 m²,1.866 m²,Ikke krav om energimærke,"Gammel Køge Landevej 109, 2500 Valby",55.648837,12.506944
https://www.ejendomstorvet.dk/investering/nordsjaelland/helsingoer/grunde/53e0163f-0dba-40f2-ba8d-98f4247bb2df,2.600.000 kr.,300.000 kr.,45.688 kr.,"0,0 %",,,,1.500 m²,Ikke krav om energimærke,Ikke krav om energimærke,"Bybjergvej 29, , 3060 Espergærde",55.997357,12.522386
https://www.ejendomstorvet.dk/investering/sydjylland/esbjerg/kontor/b7f86e9c-43b3-4d0b-a9bf-60f5de517a22,9.500.000 kr.,851.375 kr.,892 kr.,87.503 kr.,91 kr.,"8,1 %",9.958 kr.,954 m²,2.705 m²,Ikke krav om energimærke,"Jagtvej 37, 6705 Esbjerg Ø",55.478303,8.480376
https://www.ejendomstorvet.dk/investering/vest-og-sydsjaelland/holbaek/detailhandel-butik/0b206f01-8917-4bf3-acf6-565a9c7d3a25,26.150.000 kr.,2.307.120 kr.,644 kr.,296.438 kr.,82 kr.,"8,3 %",7.304 kr.,3.580 m²,2.447 m²,B,"Kasernevej 77, 4300 Holbæk",55.714878,11.723877
https://www.ejendomstorvet.dk/investering/koebenhavns-omegn/hoeje-taastrup/kontor/b44e8597-4946-4212-a59c-eebcf228f14e,42.500.000 kr.,4.355.255 kr.,1.285 kr.,1.494.000 kr.,441 kr.,"7,1 %",12.547 kr.,3.387 m²,3.975 m²,B,"Skagensgade 1, 2630 Taastrup",55.650681,12.268307
https://www.ejendomstorvet.dk/investering/vest-og-sydsjaelland/naestved/kontor/5c872a20-b3f4-45db-a4ea-0ff9d481fe0b,15.500.000 kr.,1.408.010 kr.,1.135 kr.,296.291 kr.,238 kr.,"7,5 %",12.500 kr.,1.240 m²,6.003 m²,D,"Parkvej 46A, 4700 Næstved",55.216184,11.758489
https://www.ejendomstorvet.dk/investering/oestsjaelland/koege/kontor/0f6e736c-7106-4039-9a13-959bf311fac3,15.500.000 kr.,1.164.789 kr.,866 kr.,236.318 kr.,175 kr.,"6,5 %",11.524 kr.,1.345 m²,96.976 m²,B,"Støberivej 1A, , 4600 Køge",55.478807,12.187622
https://www.ejendomstorvet.dk/investering/oestsjaelland/koege/kontor/86a22ade-0ff6-40a4-bdfe-01bcb9eea2cd,66.000.000 kr.,4.940.381 kr.,1.076 kr.,816.113 kr.,177 kr.,"6,7 %",14.385 kr.,4.588 m²,96.976 m²,B,"Galoche Alle 10, , 4600 Køge",55.477769,12.186749
https://www.ejendomstorvet.dk/investering/vest-og-sydsjaelland/kalundborg/boligudlejning/6f408026-3f06-49d7-b7c2-601c6049cabf,67.300.000 kr.,5.382.000 kr.,2.483 kr.,1.221.169 kr.,563 kr.,"6,2 %",31.056 kr.,2.167 m²,2.832 m²,D,"Kordilgade 1, 4400 Kalundborg",55.680995,11.087669
https://www.ejendomstorvet.dk/investering/oestjylland/randers/boligudlejning/6e629773-862e-4d7d-b084-4a3c623b59a3,33.250.000 kr.,2.894.453 kr.,780 kr.,934.555 kr.,251 kr.,"6,0 %",8.964 kr.,3.709 m²,8.474 m²,E,"Markedsgade 35 m.fl., 8900 Randers C",,
https://www.ejendomstorvet.dk/investering/vestjylland/struer/boligudlejning/938dbec7-07b4-4f61-a6f7-3a28cc2bf731,16.950.000 kr.,1.206.940 kr.,880 kr.,234.485 kr.,171 kr.,"5,8 %",12.372 kr.,1.370 m²,5.073 m²,B,"Mellemvej 5, 7600 Struer",56.541017,8.55794
https://www.ejendomstorvet.dk/investering/vestjylland/struer/grunde/9f09befa-37de-4421-97af-8e182a5e03d1,6.500.000 kr.,13.888 kr.,"-0,2 %",,,,,12.787 m²,Ikke krav om energimærke,Ikke krav om energimærke,"Mellemvej 4, , 7600 Struer",56.540602,8.557879
https://www.ejendomstorvet.dk/investering/vestjylland/herning/andre-typer/3b8728c9-7600-4945-a960-2cd1cf10b776,24.000.000 kr.,2.235.810 kr.,737 kr.,497.470 kr.,164 kr.,"7,4 %",7.912 kr.,3.033 m²,13.062 m²,B,"Vejlevej 1, 7400 Herning",56.110665,8.979367
https://www.ejendomstorvet.dk/investering/vestjylland/struer/lager-produktion/8b2f3448-08ec-4c30-99db-433fc33c6c6b,4.095.000 kr.,438.996 kr.,237 kr.,110.000 kr.,59 kr.,"8,1 %",2.217 kr.,1.847 m²,4.204 m²,Ikke krav om energimærke,"Gørtlervej 3, 7600 Struer",56.476862,8.580548
https://www.ejendomstorvet.dk/investering/nordjylland/broenderslev/boligudlejning/60f07a0a-b845-49a4-a4a4-5a011b1601b4,16.425.000 kr.,1.426.435 kr.,652 kr.,398.263 kr.,182 kr.,"6,4 %",7.513 kr.,2.186 m²,2.214 m²,C,"P N Jensens Plads 4, 9700 Brønderslev",57.26846,9.949933
https://www.ejendomstorvet.dk/investering/oestjylland/randers/boligudlejning/e35ab8f0-3b2d-4279-adb3-0f294419c585,112.500.000 kr.,6.411.773 kr.,1.169 kr.,1.207.014 kr.,220 kr.,"4,7 %",20.514 kr.,5.484 m²,13.231 m²,A15,"Skræddervej 7, , 8920 Randers NV",56.478011,10.025035
https://www.ejendomstorvet.dk/investering/sydjylland/vejle/lager-produktion/0032dfbb-9457-4c40-837e-3406dc6322d3,12.000.000 kr.,1.061.310 kr.,392 kr.,94.885 kr.,35 kr.,"8,1 %",4.434 kr.,2.706 m²,12.000 m²,A10,"Industriparken 1, 7182 Bredsten",55.701948,9.376164
https://www.ejendomstorvet.dk/investering/oestjylland/aarhus/lager-produktion/c2a23c2d-b1eb-4f5b-bdad-eef787af6473,42.000.000 kr.,4.018.606 kr.,480 kr.,504.272 kr.,60 kr.,"8,7 %",5.016 kr.,8.372 m²,18.998 m²,Ikke krav om energimærke,"Michael Drewsens Vej 10, 8270 Højbjerg",56.106929,10.155877
https://www.ejendomstorvet.dk/investering/oestjylland/aarhus/boligudlejning/189f8a31-d1cc-40bd-8675-46841e3518b1,7.500.000 kr.,163.200 kr.,399 kr.,75.389 kr.,184 kr.,"5,2 %",18.337 kr.,409 m²,123 m²,E,"Røgelvej 1A, 8220 Brabrand",56.152972,10.127009
https://www.ejendomstorvet.dk/investering/oestjylland/aarhus/boligudlejning/79cfec90-7666-4883-bac0-34baecd11c19,7.500.000 kr.,163.200 kr.,399 kr.,75.389 kr.,184 kr.,"5,2 %",18.337 kr.,409 m²,123 m²,E,"Røgelvej 1A, 8220 Brabrand",56.152972,10.127009
https://www.ejendomstorvet.dk/investering/oestjylland/randers/boligudlejning/c613d703-475b-4183-a772-62fea839db58,2.200.000 kr.,167.300 kr.,697 kr.,53.353 kr.,222 kr.,"5,2 %",9.166 kr.,240 m²,1.513 m²,D,"Grenstenvej 2A, 8870 Langå",56.433456,9.944737
https://www.ejendomstorvet.dk/investering/vest-og-sydsjaelland/slagelse/boligudlejning/3f1b4804-41de-4f4d-8559-f911d8c8df19,5.995.000 kr.,427.200 kr.,975 kr.,68.401 kr.,156 kr.,"6,1 %",13.687 kr.,438 m²,2.783 m²,C,"Nankes Plads 18, 4220 Korsør",55.326523,11.140506
https://www.ejendomstorvet.dk/investering/sydjylland/fredericia/lager-produktion/f6fbb3ee-aa07-4127-9064-921f42625d73,8.650.000 kr.,1.029.500 kr.,452 kr.,207.879 kr.,91 kr.,"9,5 %",3.803 kr.,2.274 m²,7.625 m²,C,"Snaremosevej 23A, 7000 Fredericia",55.542958,9.692654
https://www.ejendomstorvet.dk/investering/sydjylland/kolding/kontor/5d055ecd-9869-43d5-99f4-9fa1ea563886,53.700.000 kr.,3.983.610 kr.,744 kr.,1.743.102 kr.,325 kr.,"7,0 %",10.033 kr.,5.352 m²,15.601 m²,A10,"Kokmose 12, 6000 Kolding",55.5325,9.481153
https://www.ejendomstorvet.dk/investering/vestjylland/herning/andre-typer/7efac51b-f8de-4a5b-a43e-3d1aba8b86b5,2.700.000 kr.,48.470 kr.,67 kr.,"0,0 %",3.755 kr.,,,719 m²,12.800 m²,B,"Teglvænget 10-12, 7400 Herning",56.1353688,8.9312612
https://www.ejendomstorvet.dk/investering/vest-og-sydsjaelland/soroe/boligudlejning/6c7604bc-927d-44b4-8dce-2f5ea64a5a6c,2.850.000 kr.,259.290 kr.,689 kr.,55.248 kr.,146 kr.,"7,1 %",7.579 kr.,376 m²,1.520 m²,B,"Sorøvej 9B, 4291 Ruds Vedby",55.541128,11.387276
https://www.ejendomstorvet.dk/investering/oestjylland/aarhus/lager-produktion/c880d495-db7e-438a-be2d-4b3ad3b1c44d,43.500.000 kr.,3.039.954 kr.,782 kr.,230.444 kr.,59 kr.,"6,7 %",11.199 kr.,3.884 m²,11.276 m²,A15,"Rosbjergvej 5a, 8220 Brabrand",56.153345,10.050984
https://www.ejendomstorvet.dk/investering/oestsjaelland/koege/lager-produktion/2b40aef5-b907-4240-b641-accf06627ecd,20.500.000 kr.,1.321.465 kr.,908 kr.,92.750 kr.,63 kr.,"6,1 %",14.089 kr.,1.455 m²,12.525 m²,C,"Værkstedsvej 38, 4600 Køge",55.506065,12.194816
https://www.ejendomstorvet.dk/investering/sydjylland/kolding/grunde/7eeb18dc-5372-4180-a411-45d81bff52f2,24.500.000 kr.,5.328 kr.,"-0,0 %",,,,,50.000 m²,Ikke krav om energimærke,Ikke krav om energimærke,"Alpegården 1, , 6000 Kolding",,
https://www.ejendomstorvet.dk/investering/vest-og-sydsjaelland/faxe/boligudlejning/2126a3cd-a2a4-4f6a-a650-4ebfca9fae6a,9.450.000 kr.,636.000 kr.,895 kr.,108.810 kr.,153 kr.,"5,7 %",13.309 kr.,710 m²,1.710 m²,D,"Bråbyvej 52A, 4690 Haslev",55.317353,11.963603
https://www.ejendomstorvet.dk/investering/oestsjaelland/roskilde/boligudlejning/75551245-81e7-4726-928a-70fad23f0abb,"0,0 %",,,,,,,354 m²,3.163 m²,F,"Græsengen 2, 4000 Roskilde",55.642466,12.04404
https://www.ejendomstorvet.dk/investering/fyn/assens/lager-produktion/f50055ad-0fba-44a4-afc6-4ea55ed660ef,6.950.000 kr.,742.000 kr.,330 kr.,123.655 kr.,55 kr.,"9,3 %",3.095 kr.,2.245 m²,5.006 m²,Ikke krav om energimærke,"Industrivænget 1, , 5610 Assens",55.260966,9.901042
https://www.ejendomstorvet.dk/investering/nordsjaelland/helsingoer/detailhandel-butik/5c1655a1-e2b7-4471-b73c-b59b504d25e4,30.000.000 kr.,2.125.651 kr.,1.415 kr.,368.178 kr.,245 kr.,"5,8 %",19.973 kr.,1.502 m²,2.025 m²,E,"Stengade 23A, , 3000 Helsingør",56.033294,12.609627
https://www.ejendomstorvet.dk/investering/nordjylland/broenderslev/boligudlejning/83d942f5-f735-47bb-affd-ea2d0fb10a76,36.800.000 kr.,2.106.600 kr.,1.276 kr.,265.500 kr.,160 kr.,"5,2 %",22.303 kr.,1.650 m²,7.226 m²,A15,"Solvangsvej 67, 9700 Brønderslev",57.265657,9.966855
https://www.ejendomstorvet.dk/investering/fyn/odense/kontor/f8ed1572-fa29-43df-8962-c05fab98d9ac,16.900.000 kr.,1.441.729 kr.,823 kr.,122.040 kr.,69 kr.,"8,1 %",9.651 kr.,1.751 m²,8.229 m²,D,"Middelfartvej 218, , 5200 Odense V",55.392291,10.318046
https://www.ejendomstorvet.dk/investering/fyn/odense/boligudlejning/a99ef708-7fbb-4e57-8e73-426eeee68ca5,18.600.000 kr.,978.720 kr.,1.329 kr.,107.000 kr.,145 kr.,"4,7 %",25.271 kr.,736 m²,2.190 m²,A15,"Hyldegårdsvej 9A, 5240 Odense NØ",55.428097,10.440746
https://www.ejendomstorvet.dk/investering/nordjylland/frederikshavn/andre-typer/7d1c1d0b-8157-4304-bd54-29aa2873afac,5.995.000 kr.,648.000 kr.,455 kr.,175.037 kr.,123 kr.,"7,8 %",4.212 kr.,1.423 m²,3.923 m²,D,"Råholtvej 2-8A, , 9900 Frederikshavn",57.4398257,10.513285
https://www.ejendomstorvet.dk/investering/vest-og-sydsjaelland/vordingborg/boligudlejning/8c0f2854-e540-4a50-92d7-42a30c0146dd,8.875.000 kr.,674.700 kr.,1.014 kr.,133.996 kr.,201 kr.,"6,1 %",13.345 kr.,665 m²,3.222 m²,B,"Lerbjergvej 2, 4760 Vordingborg",55.039359,11.961133
https://www.ejendomstorvet.dk/investering/oestsjaelland/solroed/lager-produktion/869c9be5-5b66-4f1b-8a16-d2ea5172ee65,12.500.000 kr.,1.439.915 kr.,461 kr.,257.363 kr.,82 kr.,"9,5 %",4.010 kr.,3.117 m²,7.984 m²,Ikke krav om energimærke,"Industrivænget 19, 4622 Havdrup",55.550588,12.125021
https://www.ejendomstorvet.dk/investering/koebenhavns-omegn/roedovre/lager-produktion/28ec1412-d43a-47ad-b1e2-842f980fe43c,18.950.000 kr.,1.695.907 kr.,664 kr.,260.492 kr.,101 kr.,"7,6 %",7.419 kr.,2.554 m²,4.250 m²,Ikke krav om energimærke,"Hadsundvej 15, 2610 Rødovre",55.699366,12.428435
https://www.ejendomstorvet.dk/investering/koebenhavns-omegn/lyngby-taarbaek/kontor/78e64b82-627e-4363-8305-f097014e61e5,28.500.000 kr.,1.939.116 kr.,1.553 kr.,219.614 kr.,175 kr.,"6,0 %",22.836 kr.,1.248 m²,7.238 m²,B,"Jernbanevej 6, 2800 Kongens Lyngby",55.771843,12.49999
https://www.ejendomstorvet.dk/investering/oestsjaelland/lejre/andre-typer/6e07e097-e2ff-4cf8-9ba1-0bc0034f2c5b,6.795.000 kr.,583.000 kr.,1.015 kr.,157.500 kr.,274 kr.,"6,1 %",11.837 kr.,574 m²,33.080 m²,Ikke krav om energimærke,"Kildevangsvej 20, 4000 Roskilde",55.593102,12.052489
https://www.ejendomstorvet.dk/investering/sydjylland/esbjerg/detailhandel-butik/ba00479e-e1a0-4d7d-a8c0-16d7735c2384,67.000.000 kr.,89.880 kr.,27 kr.,"6,1 %",20.653 kr.,,,3.244 m²,3.300 m²,Ikke krav om energimærke,"Limfjordsvej 6, , 6715 Esbjerg N",55.510109,8.463751
https://www.ejendomstorvet.dk/investering/vestjylland/ringkoebing-skjern/lager-produktion/82da1273-69dc-4e1e-bce1-3def29b7961b,65.000.000 kr.,6.255.792 kr.,381 kr.,447.996 kr.,27 kr.,"9,1 %",3.960 kr.,16.411 m²,41.559 m²,Ikke krav om energimærke,"Malervej 8, 6920 Videbæk",56.087923,8.640504
https://www.ejendomstorvet.dk/investering/oestjylland/randers/lager-produktion/e4111ed8-382f-4253-b918-47c4ebbfc51a,7.995.000 kr.,564.000 kr.,197 kr.,164.203 kr.,57 kr.,"5,0 %",2.801 kr.,2.854 m²,21.596 m²,Ikke krav om energimærke,"Vandværksvej 42A, 8960 Randers SØ",56.436205,10.139341
https://www.ejendomstorvet.dk/investering/vest-og-sydsjaelland/slagelse/boligudlejning/875da7d6-7ada-4e9f-b845-0ce357230be9,35.000.000 kr.,1.669.200 kr.,1.415 kr.,179.418 kr.,152 kr.,"4,3 %",29.686 kr.,1.179 m²,1.578 m²,A15,"Smedegade 41, 4200 Slagelse",55.406477,11.360793
https://www.ejendomstorvet.dk/investering/vest-og-sydsjaelland/guldborgsund/andre-typer/ed0dcdfa-0f18-4ee6-b182-c73d27d12202,1.595.000 kr.,207.000 kr.,435 kr.,44.388 kr.,93 kr.,"10,1 %",3.357 kr.,475 m²,1.527 m²,D,"Vestergade 12, 4990 Sakskøbing",54.800442,11.634448
https://www.ejendomstorvet.dk/investering/sydjylland/vejle/lager-produktion/81f0a6fb-684c-4396-9d6f-bd3520730afa,11.800.000 kr.,984.000 kr.,304 kr.,132.345 kr.,40 kr.,"7,2 %",3.647 kr.,3.235 m²,22.556 m²,C,"Islandsvej 9, 7100 Vejle",55.728293,9.562186
https://www.ejendomstorvet.dk/investering/nordjylland/aalborg/kontor/c6adc677-6936-49f2-af25-04e046a9260e,27.500.000 kr.,227.585 kr.,188 kr.,"6,7 %",22.727 kr.,,,1.210 m²,3.774 m²,A10,"Hobrovej 503 - 505, 9200 Aalborg SV",,
https://www.ejendomstorvet.dk/investering/oestjylland/randers/andre-typer/2984c75f-0cba-4879-ae1b-dff063924c0a,18.200.000 kr.,1.444.381 kr.,857 kr.,211.920 kr.,125 kr.,"6,9 %",10.807 kr.,1.684 m²,1.505 m²,D,"St. Voldgade 4-6, 8900 Randers C",,
https://www.ejendomstorvet.dk/investering/oestjylland/silkeborg/andre-typer/d6b31951-feaa-4369-8acc-5776be8448a5,3.595.000 kr.,31.158 kr.,45 kr.,"-0,9 %",5.240 kr.,,,686 m²,6.838 m²,C,"Salten Skovvej 10, 8653 Them",56.096539,9.583919
https://www.ejendomstorvet.dk/investering/nordjylland/frederikshavn/lager-produktion/78c05066-ce68-4a22-a95d-6859f0308da9,2.295.000 kr.,127.000 kr.,248 kr.,42.493 kr.,82 kr.,"3,6 %",4.482 kr.,512 m²,2.710 m²,Ikke krav om energimærke,"Anholtvej 17, , 9900 Frederikshavn",57.430355,10.513421
https://www.ejendomstorvet.dk/investering/vest-og-sydsjaelland/slagelse/andre-typer/f9c08c77-b546-4e6c-a53a-b8d6553b32c5,25.000.000 kr.,1.353.000 kr.,1.838 kr.,122.145 kr.,165 kr.,"5,1 %",33.967 kr.,736 m²,1.572 m²,B,"Kalundborgvej 83, 4200 Slagelse",55.415531,11.33644
https://www.ejendomstorvet.dk/investering/nordsjaelland/helsingoer/lager-produktion/be2eb56f-45b7-42e5-aafd-1d58ea89f674,14.000.000 kr.,909.150 kr.,475 kr.,168.179 kr.,87 kr.,"5,3 %",7.314 kr.,1.914 m²,3.247 m²,Ikke krav om energimærke,"Støberivej 3, , 3000 Helsingør",56.020319,12.562064
https://www.ejendomstorvet.dk/investering/vest-og-sydsjaelland/slagelse/lager-produktion/dc45ed9b-1d4d-46c8-b6dc-02472225a883,8.345.000 kr.,785.000 kr.,572 kr.,155.487 kr.,113 kr.,"7,6 %",6.082 kr.,1.372 m²,4.064 m²,B,"Bornholmsvej 11, , 4200 Slagelse",55.395222,11.342484
https://www.ejendomstorvet.dk/investering/koebenhavns-omegn/broendby/lager-produktion/3b5f3a66-116a-42da-b5d0-a1685ac9d0e1,14.000.000 kr.,654.193 kr.,859 kr.,109.449 kr.,143 kr.,"6,0 %",18.396 kr.,761 m²,2.667 m²,Ikke krav om energimærke,"Midtager 15, 2605 Brøndby",55.648117,12.387599
https://www.ejendomstorvet.dk/investering/fyn/middelfart/lager-produktion/f68c9bc1-361d-4303-90e1-ea33a9dfb4ef,12.000.000 kr.,949.624 kr.,487 kr.,185.893 kr.,95 kr.,"6,4 %",6.157 kr.,1.949 m²,5.445 m²,Ikke krav om energimærke,"Alsvej 2 + 4A, 5500 Middelfart",55.5009021,9.7607888
https://www.ejendomstorvet.dk/investering/vest-og-sydsjaelland/holbaek/boligudlejning/64a69d3d-8c49-4325-92d4-07d0e157da3c,25.000.000 kr.,2.175.310 kr.,946 kr.,95.000 kr.,41 kr.,"8,5 %",10.874 kr.,2.299 m²,12.020 m²,Ikke krav om energimærke,"Stenhusvej 72 -74, , 4300 Holbæk",55.7018554,11.6732188
https://www.ejendomstorvet.dk/investering/fyn/odense/grunde/df43423a-b8d9-4b99-8e05-152db9f5bce6,13.600.000 kr.,996.237 kr.,2.333 kr.,42.360 kr.,99 kr.,"7,0 %",31.850 kr.,427 m²,2.947 m²,Ikke krav om energimærke,"Hjallesevej 135A, 5230 Odense M",55.380905,10.395438
https://www.ejendomstorvet.dk/investering/nordjylland/hjoerring/andre-typer/22e2dc98-4aa2-4596-84b7-0c8607ff91d4,9.900.000 kr.,895.214 kr.,859 kr.,184.086 kr.,176 kr.,"7,2 %",9.510 kr.,1.041 m²,1.608 m²,C,"Bispensgade 93, 9800 Hjørring",57.44832,9.995907
https://www.ejendomstorvet.dk/investering/oestjylland/aarhus/grunde/67f0cb16-3943-44b1-9382-d3c13308c0a3,4.250.000 kr.,20.489 kr.,"0,0 %",,,,,9.322 m²,Ikke krav om energimærke,Ikke krav om energimærke,"Vanggårdsvej 11 8530, 8530 Hjortshøj",,
https://www.ejendomstorvet.dk/investering/fyn/kerteminde/andre-typer/42dde020-1f0d-4c94-a91c-ee31fd5d464c,3.200.000 kr.,316.508 kr.,502 kr.,94.581 kr.,150 kr.,"6,9 %",5.079 kr.,630 m²,3.074 m²,E,"Odensevej 96 5290, 5290 Marslev",,
https://www.ejendomstorvet.dk/investering/nordjylland/frederikshavn/kontor/96322c65-fbc2-4fef-a106-fe0d19b76106,13.000.000 kr.,1.300.000 kr.,753 kr.,89.384 kr.,51 kr.,"9,2 %",7.536 kr.,1.725 m²,2.809 m²,D,"Havnepladsen 7, 9900 Frederikshavn",57.437902,10.538095
https://www.ejendomstorvet.dk/investering/koebenhavns-omegn/hoeje-taastrup/detailhandel-butik/88c65ee1-33f6-4f3d-bc3d-0d598f57b945,9.000.000 kr.,804.848 kr.,982 kr.,297.089 kr.,362 kr.,"6,7 %",10.989 kr.,819 m²,2.327 m²,A10,"Høje Taastrup Boulevard 76, st, 2630 Taastrup",,
https://www.ejendomstorvet.dk/investering/sydjylland/aabenraa/lager-produktion/65c7529f-680d-4d17-b346-a2cebdf75ad2,3.000.000 kr.,343.500 kr.,246 kr.,101.770 kr.,72 kr.,"8,5 %",2.148 kr.,1.396 m²,3.000 m²,B,"Okslundvej 3 6330, 6330 Padborg",,
https://www.ejendomstorvet.dk/investering/oestjylland/horsens/boligudlejning/b4c57d9e-8ad6-4692-86c5-830347e6ca79,18.750.000 kr.,1.104.668 kr.,1.227 kr.,195.675 kr.,217 kr.,"4,9 %",20.833 kr.,900 m²,2.640 m²,A15,"Bankagervej 82-98, 8700 Horsens",55.83502,9.8378034
https://www.ejendomstorvet.dk/investering/nordsjaelland/hilleroed/detailhandel-butik/459d4bc9-7f33-44dd-9f6b-90cb39bf2455,24.900.000 kr.,1.794.832 kr.,897 kr.,311.800 kr.,155 kr.,"6,2 %",12.450 kr.,2.000 m²,5.000 m²,A10,"Lodbrogsvej 4A & 4B, 3400 Hillerød",55.9288541,12.2667863
https://www.ejendomstorvet.dk/investering/sydjylland/vejen/boligudlejning/578aff46-5fe5-42a1-a682-2ba5acffcadb,1.100.000 kr.,13.988 kr.,70 kr.,"-1,2 %",5.555 kr.,,,198 m²,1.607 m²,Ikke krav om energimærke,"Grønhøjgade 17, 6600 Vejen",55.469985,9.141015
https://www.ejendomstorvet.dk/investering/fyn/nyborg/grunde/f701a396-ae35-4ec9-a639-1ff8c6060ce7,4.250.000 kr.,"0,0 %",,,,,,13.305 m²,Ikke krav om energimærke,Ikke krav om energimærke,"Skaboeshusevej 102, 5800 Nyborg",55.339501,10.796918
https://www.ejendomstorvet.dk/investering/sydjylland/esbjerg/andre-typer/9d44c3ef-2c3f-4c00-a8f8-bd42c1e05a59,1.995.000 kr.,252.600 kr.,661 kr.,59.710 kr.,156 kr.,"9,5 %",5.222 kr.,382 m²,2.000 m²,Ikke krav om energimærke,"Brolæggervej 15, 6710 Esbjerg V",55.507573,8.41446
https://www.ejendomstorvet.dk/investering/oestsjaelland/roskilde/lager-produktion/61d3ea0d-aad2-434d-b75d-35d7bd388efe,18.895.000 kr.,1.859.907 kr.,603 kr.,508.645 kr.,164 kr.,"7,3 %",6.128 kr.,3.083 m²,5.007 m²,A10,"Metalvej 7, 4000 Roskilde",55.645944,12.128041
https://www.ejendomstorvet.dk/investering/koebenhavns-omegn/glostrup/lager-produktion/bc69a4e5-98be-452d-bb8b-469f7e4a44b0,8.400.000 kr.,727.900 kr.,1.118 kr.,156.910 kr.,241 kr.,"6,7 %",12.903 kr.,651 m²,2.048 m²,D,"Sydvestvej 138, 2600 Glostrup",55.661898,12.371922
https://www.ejendomstorvet.dk/investering/fyn/odense/lager-produktion/fc5e7aac-f4a5-420e-92b8-3fae9f7fd0e0,10.600.000 kr.,202.571 kr.,84 kr.,"-1,8 %",4.414 kr.,,,2.401 m²,5.507 m²,F,"Hans Egedes Vej 9D, 5210 Odense NV",55.415552,10.342549
https://www.ejendomstorvet.dk/investering/sydjylland/billund/boligudlejning/0de956b7-2876-4ef3-a098-2aab66e616e0,13.000.000 kr.,1.428.374 kr.,932 kr.,413.214 kr.,269 kr.,"7,8 %",8.491 kr.,1.531 m²,5.569 m²,D,"Hovedgaden 52A, 7260 Sønder Omme",55.83949,8.884575
https://www.ejendomstorvet.dk/investering/oestsjaelland/roskilde/kontor/114ea6dd-82f5-45da-821d-0dace744fe7f,18.895.000 kr.,1.859.907 kr.,603 kr.,508.645 kr.,164 kr.,"7,3 %",6.128 kr.,3.083 m²,5.007 m²,A10,"Metalvej 7A, 4000 Roskilde",55.645944,12.128041
https://www.ejendomstorvet.dk/investering/nordjylland/mariagerfjord/detailhandel-butik/ab10a9c0-c426-46c9-a025-9d608d9f3e63,4.495.000 kr.,444.000 kr.,538 kr.,61.425 kr.,74 kr.,"8,5 %",5.455 kr.,824 m²,164 m²,C,"Smedevej 15, 9500 Hobro",56.62341,9.803997
https://www.ejendomstorvet.dk/investering/vestjylland/ikast-brande/boligudlejning/4ec5e38a-1061-4e07-8e26-224e23f5ba03,8.580.000 kr.,534.677 kr.,1.137 kr.,75.563 kr.,160 kr.,"5,3 %",18.255 kr.,470 m²,3.164 m²,A15,"Møllegade 4A, 8766 Nørre Snede",55.968682,9.39509
https://www.ejendomstorvet.dk/investering/fyn/nordfyns/andre-typer/4a21b560-96ce-45ed-b401-5c1e1f403010,3.400.000 kr.,430.485 kr.,331 kr.,125.131 kr.,96 kr.,"8,6 %",2.619 kr.,1.298 m²,2.779 m²,Ikke krav om energimærke,"Østergade 16, 5471 Søndersø",55.512186,10.178811
https://www.ejendomstorvet.dk/investering/oestsjaelland/koege/andre-typer/29bf01d2-c6df-415a-8c85-ecf856858dfe,36.000.000 kr.,2.668.644 kr.,1.698 kr.,466.142 kr.,296 kr.,"6,3 %",22.915 kr.,1.571 m²,1.876 m²,E,"Vestergade 19-21, 4600 Køge",55.4574639,12.1781027
https://www.ejendomstorvet.dk/investering/fyn/odense/boligudlejning/3fcfdf54-a144-4ea6-9b15-27add8a2afbc,3.795.000 kr.,291.871 kr.,944 kr.,81.607 kr.,264 kr.,"5,5 %",12.281 kr.,309 m²,1.917 m²,C,"Rådyrvej 25, 5210 Odense NV",55.426236,10.259971
https://www.ejendomstorvet.dk/investering/koebenhavns-omegn/glostrup/detailhandel-butik/b913d8a0-2112-4ada-b35d-80b25b0d2286,126.000.000 kr.,9.778.745 kr.,1.776 kr.,860.067 kr.,156 kr.,"7,5 %",22.892 kr.,5.504 m²,11.877 m²,E,"Hovedvejen 211, 2600 Glostrup",55.663425,12.372486
https://www.ejendomstorvet.dk/investering/nordjylland/morsoe/grunde/5fed5fdf-071a-4e4e-a9ab-9381b7a0bf00,850.000 kr.,9.508 kr.,"0,0 %",,,,,8.122 m²,Ikke krav om energimærke,Ikke krav om energimærke,"Strandparken 80, 7900 Nykøbing M",56.808967,8.864898
https://www.ejendomstorvet.dk/investering/oestjylland/aarhus/lager-produktion/db99ee0d-1d87-4fa5-8471-d99ae7e06b54,6.995.000 kr.,619.982 kr.,538 kr.,110.518 kr.,95 kr.,"7,4 %",6.072 kr.,1.152 m²,3.058 m²,Ikke krav om energimærke,"Bøgekildevej 7, 8361 Hasselager",56.103387,10.092852
https://www.ejendomstorvet.dk/investering/vest-og-sydsjaelland/slagelse/boligudlejning/174daf5a-2608-484b-a653-9ace708bd5ed,3.950.000 kr.,50.471 kr.,29 kr.,"0,0 %",2.291 kr.,,,1.724 m²,1.911 m²,Ikke krav om energimærke,"Algade 17, 4220 Korsør",55.327438,11.140294
https://www.ejendomstorvet.dk/investering/oestjylland/randers/boligudlejning/c1cfbc9f-551a-42e7-8e4a-8a02a651b47a,26.000.000 kr.,1.393.344 kr.,1.132 kr.,155.139 kr.,126 kr.,"4,8 %",21.138 kr.,1.230 m²,5.664 m²,A15,"Over Fussingvej 11A, 8920 Randers NV",56.484208,9.903623
https://www.ejendomstorvet.dk/investering/nordsjaelland/gribskov/detailhandel-butik/a884c3ec-e62f-459f-ad27-fd44a3e3efd6,6.700.000 kr.,459.217 kr.,886 kr.,36.590 kr.,70 kr.,"6,5 %",12.934 kr.,518 m²,6.670 m²,D,"Bymosevej 9A, 3200 Helsinge",56.015544,12.198601
https://www.ejendomstorvet.dk/investering/sydjylland/billund/boligudlejning/c0ef244b-32ee-4dd9-b8e1-9f506ba34d3c,11.475.000 kr.,1.346.209 kr.,943 kr.,446.167 kr.,312 kr.,"7,8 %",8.041 kr.,1.427 m²,4.124 m²,F,"Kirkegade 2A, 6623 Vorbasse",55.629447,9.086653
https://www.ejendomstorvet.dk/investering/koebenhavns-omegn/gentofte/boligudlejning/735954a1-bef4-4849-8a50-a9bcd53ab483,11.500.000 kr.,460.320 kr.,1.386 kr.,133.590 kr.,402 kr.,"2,9 %",34.638 kr.,332 m²,1.787 m²,E,"Frændevej 25A, 2870 Dyssegård",55.73591,12.529375
https://www.ejendomstorvet.dk/investering/vest-og-sydsjaelland/holbaek/andre-typer/ff9304a0-1d97-4d58-b7ee-1b5d1a600005,4.800.000 kr.,365.400 kr.,386 kr.,79.000 kr.,83 kr.,"5,9 %",5.079 kr.,945 m²,4.138 m²,Ikke krav om energimærke,"Tjebberupvej 60-62 4300, 4300 Holbæk",,
https://www.ejendomstorvet.dk/investering/vestjylland/skive/boligudlejning/6ef293d0-312b-4bce-958e-80e6152b6537,6.950.000 kr.,1.127.868 kr.,480 kr.,666.939 kr.,284 kr.,"6,9 %",2.959 kr.,2.348 m²,1.701 m²,D,"Havnevej 13A, 7800 Skive",56.56995,9.031862
https://www.ejendomstorvet.dk/investering/sydjylland/billund/boligudlejning/ffbe36f2-2055-48a0-90d3-5da30e02a39a,9.650.000 kr.,741.249 kr.,882 kr.,126.978 kr.,151 kr.,"6,4 %",11.488 kr.,840 m²,2.987 m²,A10,"Kirkevænget 4-18, 6623 Vorbasse, 6623 Vorbasse",,
https://www.ejendomstorvet.dk/investering/sydjylland/billund/boligudlejning/6f82af26-7d2f-4b69-9dfd-de16ed2540af,8.950.000 kr.,621.497 kr.,947 kr.,103.234 kr.,157 kr.,"5,8 %",13.643 kr.,656 m²,3.306 m²,A10,"Smedevej 1-7B, 7250 Hejnsvig, 7250 Hejnsvig",,
https://www.ejendomstorvet.dk/investering/vest-og-sydsjaelland/odsherred/grunde/6daf8af9-4d7b-4ba3-9717-5def0138d605,5.914.000 kr.,126.655 kr.,"0,0 %",,,,,253.070 m²,Ikke krav om energimærke,Ikke krav om energimærke,"Højgårdsvej 10C, 4540 Fårevejle",55.777285,11.486408
https://www.ejendomstorvet.dk/investering/oestjylland/syddjurs/lager-produktion/37bfa698-e2bf-41ae-9523-46abb250ef9b,7.400.000 kr.,1.045.152 kr.,294 kr.,295.642 kr.,83 kr.,"10,2 %",2.083 kr.,3.551 m²,10.523 m²,C,"Energivej 134, 8420 Knebel",56.214558,10.484193
https://www.ejendomstorvet.dk/investering/sydjylland/vejen/lager-produktion/6734d368-f272-406b-8ffe-07839467648e,5.295.000 kr.,479.998 kr.,346 kr.,85.160 kr.,61 kr.,"7,7 %",3.820 kr.,1.386 m²,5.636 m²,Ikke krav om energimærke,"Dalgas Alle 15, 6600 Vejen",55.466312,9.142515
https://www.ejendomstorvet.dk/investering/nordjylland/mariagerfjord/lager-produktion/72a8ceee-9a25-40bd-b897-dc7c8cab4238,12.000.000 kr.,1.522.059 kr.,314 kr.,302.420 kr.,62 kr.,"10,1 %",2.482 kr.,4.834 m²,11.534 m²,Ikke krav om energimærke,"Sjællandsvej 7, 9500 Hobro",56.628629,9.814734
https://www.ejendomstorvet.dk/investering/fyn/odense/andre-typer/588ea2c4-4f6c-462d-905a-c5cbcbd29837,60.000.000 kr.,2.185.876 kr.,320 kr.,305.933 kr.,44 kr.,"3,1 %",8.802 kr.,6.816 m²,6.362 m²,Ikke krav om energimærke,"Østergade 32, 5000 Odense C",55.401205,10.394804
https://www.ejendomstorvet.dk/investering/sydjylland/fredericia/andre-typer/5312d32a-3142-4bda-898d-68cf25714a19,3.600.000 kr.,264.000 kr.,400 kr.,13.738 kr.,20 kr.,"6,9 %",5.462 kr.,659 m²,2.706 m²,Ikke krav om energimærke,"Smedevænget 8, , 7000 Fredericia",55.582479,9.769299
https://www.ejendomstorvet.dk/investering/oestjylland/randers/detailhandel-butik/7dace957-9371-4337-b1ba-39e4e2a552f8,6.200.000 kr.,600.000 kr.,854 kr.,102.886 kr.,146 kr.,"8,0 %",8.831 kr.,702 m²,1.938 m²,C,"Jernbanegade 6B, 8900 Randers C",56.460516,10.028644
https://www.ejendomstorvet.dk/investering/sydjylland/esbjerg/lager-produktion/b8c7c9d1-bb6a-4792-8353-62397e03dfa2,4.950.000 kr.,774.898 kr.,253 kr.,410.893 kr.,134 kr.,"7,3 %",1.620 kr.,3.055 m²,5.697 m²,D,"Dagvej 1 og 3, 6700 Esbjerg, 6700 Esbjerg",,
https://www.ejendomstorvet.dk/investering/nordsjaelland/fredensborg/lager-produktion/b8f36da1-acd1-4912-a280-40d0cf86d754,7.000.000 kr.,831.160 kr.,673 kr.,247.419 kr.,200 kr.,"8,6 %",5.668 kr.,1.235 m²,3.772 m²,Ikke krav om energimærke,"Bakkegårdsvej 202B-F, 3050 Humlebæk",,
https://www.ejendomstorvet.dk/investering/sydjylland/vejle/lager-produktion/54c7cfee-9007-4a8e-9f30-db61545f69a3,56.000.000 kr.,4.900.295 kr.,536 kr.,440.629 kr.,48 kr.,"8,2 %",6.129 kr.,9.136 m²,28.367 m²,Ikke krav om energimærke,"Godthåbsvej 7, 7100 Vejle",55.670157,9.548034
https://www.ejendomstorvet.dk/investering/oestjylland/aarhus/boligudlejning/e09ac679-4140-418b-a2fb-69cb1c005fe4,5.250.000 kr.,479.893 kr.,882 kr.,130.694 kr.,240 kr.,"6,8 %",9.650 kr.,544 m²,1.710 m²,D,"Beder Landevej 85A, 8330 Beder",56.054867,10.201502
https://www.ejendomstorvet.dk/investering/sydjylland/aabenraa/boligudlejning/f24edfaa-a89e-4ed9-a1ea-011c3110b8d3,2.500.000 kr.,322.990 kr.,463 kr.,72.682 kr.,104 kr.,"10,3 %",3.586 kr.,697 m²,2.196 m²,C,"Kragelundvej 1A, 6330 Padborg",54.858325,9.325187
https://www.ejendomstorvet.dk/investering/fyn/svendborg/grunde/428ab0cc-5bba-4804-b4ab-3d44c9ec76ac,"0,0 %",,,,,,,52.562 m²,Ikke krav om energimærke,Ikke krav om energimærke,"Teglgårdshaven 1, 5771 Stenstrup",,
https://www.ejendomstorvet.dk/investering/nordsjaelland/helsingoer/lager-produktion/f657c191-32b2-41fe-84b1-227a823faaab,17.900.002 kr.,1.617.557 kr.,795 kr.,264.246 kr.,129 kr.,"7,7 %",8.804 kr.,2.033 m²,4.298 m²,Ikke krav om energimærke,"Aa. Louis-Hansens Alle 2, 3060 Espergærde",,
https://www.ejendomstorvet.dk/investering/oestjylland/favrskov/andre-typer/8962c641-3233-470d-a854-e911021a3cc7,2.100.000 kr.,278.400 kr.,701 kr.,41.675 kr.,104 kr.,"11,2 %",5.289 kr.,397 m²,3.125 m²,Ikke krav om energimærke,"Banealle 6D, 8450 Hammel",56.254181,9.863804
https://www.ejendomstorvet.dk/investering/oestjylland/syddjurs/andre-typer/870beeb4-e5a5-4ba7-9ced-6771e8edd7ab,6.500.000 kr.,147.286 kr.,62 kr.,"-2,2 %",2.778 kr.,,,2.339 m²,38.959 m²,Ikke krav om energimærke,"Sjørupgårdvej 4A 8581, 8581 Nimtofte",,
https://www.ejendomstorvet.dk/investering/nordsjaelland/furesoe/boligudlejning/9889fffd-7701-4c98-b36b-358fa06e44ee,127.000.000 kr.,6.829.296 kr.,1.949 kr.,905.120 kr.,258 kr.,"4,8 %",36.244 kr.,3.504 m²,4.129 m²,Ikke krav om energimærke,"Kollekollevej 39, 3500 Værløse",55.780532,12.376698
https://www.ejendomstorvet.dk/investering/vest-og-sydsjaelland/guldborgsund/boligudlejning/c38bf043-3834-4322-b3c4-b0ea13f38062,8.695.000 kr.,690.664 kr.,626 kr.,368.992 kr.,334 kr.,"3,8 %",7.890 kr.,1.102 m²,1.839 m²,D,"Tværgade 24, 4800 Nykøbing F",54.766933,11.874339
https://www.ejendomstorvet.dk/investering/fyn/nyborg/andre-typer/036947d5-fce3-4a41-b341-086b00ca6c59,4.750.000 kr.,28.138 kr.,20 kr.,"-0,6 %",3.424 kr.,,,1.387 m²,10.904 m²,D,"Frørupvej 17, , 5871 Frørup",55.237808,10.723568
https://www.ejendomstorvet.dk/investering/nordsjaelland/rudersdal/kontor/19f21448-e12d-45fc-82cf-134270dea394,34.400.000 kr.,2.853.268 kr.,1.206 kr.,137.750 kr.,58 kr.,"8,1 %",14.545 kr.,2.365 m²,3.946 m²,C,"Skelstedet 13, 2950 Vedbæk",55.838357,12.530829
https://www.ejendomstorvet.dk/investering/fyn/odense/lager-produktion/1daf15c1-8463-4ed5-bfa8-aef98b0399c0,8.500.000 kr.,771.331 kr.,756 kr.,113.204 kr.,111 kr.,"7,9 %",8.341 kr.,1.019 m²,5.272 m²,Ikke krav om energimærke,"Energivej 4D, 5260 Odense S",55.345858,10.416582
https://www.ejendomstorvet.dk/investering/bornholm/bornholm/andre-typer/31b0fa5b-1da8-4ffb-9118-3806f79cbb81,3.500.000 kr.,78.000 kr.,98 kr.,15.580 kr.,19 kr.,"1,8 %",4.435 kr.,789 m²,2.000 m²,Ikke krav om energimærke,"Sandemandsvej 19, 3700 Rønne",55.094744,14.733531
https://www.ejendomstorvet.dk/investering/fyn/nyborg/boligudlejning/71fcca33-40ef-4844-b577-3cfde463e89a,3.800.000 kr.,313.968 kr.,839 kr.,72.099 kr.,192 kr.,"6,5 %",10.160 kr.,374 m²,1.791 m²,E,"Sofienbergvej 1B, 5800 Nyborg",55.308112,10.769456
https://www.ejendomstorvet.dk/investering/nordjylland/frederikshavn/hotel-restaurant/69587474-908f-4e0a-bc1c-89422103d6f6,30.995.000 kr.,2.797.748 kr.,995 kr.,398.309 kr.,141 kr.,"7,8 %",11.030 kr.,2.810 m²,2.027 m²,E,"Danmarksgade 62A, 9900 Frederikshavn",57.440042,10.536008
https://www.ejendomstorvet.dk/investering/oestjylland/aarhus/detailhandel-butik/028a56eb-fe1d-421e-9138-eb0bc5a6e223,54.000.000 kr.,3.360.932 kr.,1.680 kr.,543.341 kr.,271 kr.,"6,2 %",27.000 kr.,2.000 m²,2.783 m²,A15,"Frederiks Plads 20, st, 8000 Aarhus C",,
https://www.ejendomstorvet.dk/investering/nordjylland/thisted/boligudlejning/b5e331a8-475a-44d6-b510-76e0ff717142,6.250.000 kr.,805.344 kr.,729 kr.,218.899 kr.,198 kr.,"9,6 %",5.661 kr.,1.104 m²,1.733 m²,C,"Østerled 1, 7760 Hurup Thy",56.74944,8.424685
https://www.ejendomstorvet.dk/investering/vest-og-sydsjaelland/guldborgsund/detailhandel-butik/f78e149a-e30f-4022-aee6-ea4bf3081dc4,4.995.000 kr.,693.628 kr.,880 kr.,203.332 kr.,258 kr.,"9,8 %",6.338 kr.,788 m²,6.610 m²,F,"Marielyst Strandpark 3, 4873 Væggerløse",54.701767,11.958593
https://www.ejendomstorvet.dk/investering/koebenhavns-omegn/lyngby-taarbaek/boligudlejning/776156b9-0775-4077-9e9c-cb180e1fa928,37.000.000 kr.,1.886.166 kr.,1.679 kr.,581.769 kr.,518 kr.,"3,6 %",32.947 kr.,1.123 m²,1.945 m²,E,"Grønnevej 48-50, 2830 Virum",55.8009406,12.4690496
https://www.ejendomstorvet.dk/investering/fyn/assens/andre-typer/285dd190-cf2c-486a-8bfe-ad03feac8daf,850.000 kr.,289.650 kr.,3.218 kr.,107.825 kr.,1.198 kr.,"21,0 %",9.444 kr.,90 m²,10.838 m²,E,"Klaregade 15, 5620 Glamsbjerg",55.258685,10.133408
https://www.ejendomstorvet.dk/investering/vest-og-sydsjaelland/guldborgsund/lager-produktion/8bf6648b-7705-4dc4-b82b-3e0bd78d12ab,48.700.000 kr.,5.431.248 kr.,348 kr.,795.653 kr.,51 kr.,"10,0 %",3.129 kr.,15.563 m²,58.258 m²,Ikke krav om energimærke,"Havnegade 5, 4840 Nørre Alslev",54.955633,11.851376
https://www.ejendomstorvet.dk/investering/oestjylland/silkeborg/boligudlejning/ce28d5dd-63d5-4cf7-b979-2e5c07513230,2.195.000 kr.,213.600 kr.,653 kr.,59.412 kr.,181 kr.,"7,2 %",6.712 kr.,327 m²,1.616 m²,C,"Storgade 41A-C, 8882 Fårvang",56.2692134,9.7310644
https://www.ejendomstorvet.dk/investering/sydjylland/haderslev/boligudlejning/6cbdacc1-3ac0-41e5-a30a-52cbe9b37944,11.500.000 kr.,1.095.240 kr.,688 kr.,336.938 kr.,211 kr.,"6,7 %",7.232 kr.,1.590 m²,7.350 m²,C,"Tørningvej 2A, 6500 Vojens",55.245617,9.373117
https://www.ejendomstorvet.dk/investering/fyn/odense/lager-produktion/3fb35793-cb5a-44d8-a03a-bc4a19a33c8b,39.500.000 kr.,2.991.772 kr.,526 kr.,421.118 kr.,74 kr.,"6,6 %",6.954 kr.,5.680 m²,10.963 m²,Ikke krav om energimærke,"Sivmosevænget 1, 5260 Odense S",55.353704,10.403891
https://www.ejendomstorvet.dk/investering/sydjylland/vejen/kontor/a3d1d9f9-9580-4a5c-8224-85504576ba9e,7.900.000 kr.,727.425 kr.,746 kr.,103.293 kr.,106 kr.,"8,0 %",8.110 kr.,974 m²,2.623 m²,B,"Louisevej 13, 6630 Rødding",55.369131,9.06077
https://www.ejendomstorvet.dk/investering/fyn/odense/boligudlejning/b27e0991-cdc5-457e-91a7-a89bbb7bb06b,2.350.000 kr.,187.517 kr.,1.053 kr.,36.704 kr.,206 kr.,"6,5 %",13.202 kr.,178 m²,1.582 m²,D,"Middelfartvej 487, 5491 Blommenslyst",55.39054,10.265725
https://www.ejendomstorvet.dk/investering/sydjylland/billund/andre-typer/037be42c-40cb-44b8-80d8-3a2660886407,20.500.000 kr.,1.817.053 kr.,562 kr.,480.018 kr.,148 kr.,"6,6 %",6.340 kr.,3.233 m²,2.343 m²,Ikke krav om energimærke,"Borgergade 10, 7200 Grindsted",55.757036,8.92864
https://www.ejendomstorvet.dk/investering/fyn/middelfart/grunde/a6bdfd99-e049-4429-9984-2860a0787738,1.250.000 kr.,21.722 kr.,"-1,7 %",,,,,4.000 m²,Ikke krav om energimærke,Ikke krav om energimærke,"Barmstedt Alle 12, 5500 Middelfart",55.498929,9.786212
https://www.ejendomstorvet.dk/investering/nordsjaelland/gribskov/detailhandel-butik/fa3bdd73-8913-43ac-8e9c-f3917da0d85f,5.625.000 kr.,1.027.682 kr.,758 kr.,185.000 kr.,136 kr.,"0,0 %",4.154 kr.,1.354 m²,72 m²,C,"Frederiksborgvej 16-19, Stuen, 3200 Helsinge, 3200 Helsinge",,
https://www.ejendomstorvet.dk/investering/fyn/nyborg/boligudlejning/f420298f-37e0-4fe1-a046-98d592c6585c,2.000.000 kr.,202.567 kr.,723 kr.,66.684 kr.,238 kr.,"6,9 %",7.142 kr.,280 m²,3.493 m²,G,"Svendborgvej 71-75, 5853 Ørbæk",55.243808,10.6762489
https://www.ejendomstorvet.dk/investering/koebenhavns-omegn/hoeje-taastrup/andre-typer/b364111d-e4a7-46eb-aa69-53b99ae14682,12.950.000 kr.,1.072.927 kr.,1.327 kr.,610.793 kr.,755 kr.,"3,5 %",16.027 kr.,808 m²,2.279 m²,E,"Vesterkøb 40, 2640 Hedehusene",55.653565,12.196131
https://www.ejendomstorvet.dk/investering/nordjylland/aalborg/kontor/42ee3ae9-bea9-40bf-b3e2-265ed768ffcf,4.195.000 kr.,469.747 kr.,1.067 kr.,64.842 kr.,147 kr.,"9,8 %",9.534 kr.,440 m²,2.100 m²,C,"Hækken 2, 9310 Vodskov",57.065023,10.132619
https://www.ejendomstorvet.dk/investering/sydjylland/varde/detailhandel-butik/3c59fac8-9530-478f-950f-d9a332176013,18.980.000 kr.,2.119.319 kr.,1.225 kr.,123.861 kr.,71 kr.,"10,4 %",10.971 kr.,1.730 m²,29.723 m²,C,"Ribevej 33-37, 6800 Varde",55.591931,8.5120714
https://www.ejendomstorvet.dk/investering/fyn/odense/boligudlejning/9606b2fd-e0da-4c10-b167-26d838b76ded,1.395.000 kr.,100.272 kr.,1.355 kr.,33.752 kr.,456 kr.,"4,8 %",18.851 kr.,74 m²,1.735 m²,C,"Søgårdsvej 1A, 5270 Odense N",55.421369,10.349573
https://www.ejendomstorvet.dk/investering/fyn/middelfart/andre-typer/0e844fa5-9ca9-4669-b32d-ce729d4c9b3c,7.200.000 kr.,646.008 kr.,1.225 kr.,126.668 kr.,240 kr.,"7,4 %",13.662 kr.,527 m²,3.618 m²,C,"Bogensevej 11, 5500 Middelfart",55.506186,9.770214
https://www.ejendomstorvet.dk/investering/fyn/odense/boligudlejning/b4f05d8a-6f5f-4933-9242-dc4c0ee7dcd6,7.000.000 kr.,818.400 kr.,975 kr.,373.692 kr.,445 kr.,"6,4 %",8.343 kr.,839 m²,6.461 m²,D,"Sanderumvej 148A, 5250 Odense SV",55.368443,10.327691
https://www.ejendomstorvet.dk/investering/nordjylland/jammerbugt/andre-typer/5070ef0b-f341-4665-b850-74de0f250f83,4.995.000 kr.,599.208 kr.,242 kr.,105.467 kr.,42 kr.,"9,8 %",2.022 kr.,2.470 m²,1.507 m²,D,"Jernbanegade 6, 9460 Brovst",57.097942,9.522763
https://www.ejendomstorvet.dk/investering/sydjylland/vejle/boligudlejning/4c47fcb0-506a-4ea8-a2a2-c3c305a138e5,3.500.000 kr.,312.554 kr.,820 kr.,90.539 kr.,237 kr.,"6,5 %",9.186 kr.,381 m²,4.636 m²,C,"Nørre Bygade 6, 7100 Vejle",55.761794,9.543149
https://www.ejendomstorvet.dk/investering/nordjylland/aalborg/lager-produktion/666da345-2ef1-42c4-8c00-a684b96e0073,21.800.000 kr.,1.906.812 kr.,416 kr.,220.846 kr.,48 kr.,"7,9 %",4.760 kr.,4.579 m²,10.591 m²,C,"Amalienborgvej 57, 9400 Nørresundby",57.080422,9.957229
https://www.ejendomstorvet.dk/investering/nordjylland/hjoerring/lager-produktion/229c5257-0766-40e6-8f69-b82e7786a2bc,2.995.000 kr.,389.700 kr.,369 kr.,107.956 kr.,102 kr.,"9,5 %",2.836 kr.,1.056 m²,5.067 m²,E,"Dalsagervej 25, 9850 Hirtshals",57.571132,9.984002
https://www.ejendomstorvet.dk/investering/fyn/odense/lager-produktion/3af2a3d7-f57f-423a-bd41-45afdc20788c,4.950.000 kr.,453.844 kr.,548 kr.,112.170 kr.,135 kr.,"6,9 %",5.985 kr.,827 m²,1.720 m²,D,"Odensevej 103, 5260 Odense S",55.370049,10.394279
https://www.ejendomstorvet.dk/investering/koebenhavns-omegn/hvidovre/andre-typer/2acaf1e0-116a-4825-9147-c36923bad325,18.900.000 kr.,1.320.124 kr.,1.071 kr.,116.002 kr.,94 kr.,"6,6 %",15.340 kr.,1.232 m²,1.609 m²,Ikke krav om energimærke,"Bibliotekvej 58, 2650 Hvidovre",55.641205,12.469071
https://www.ejendomstorvet.dk/investering/oestjylland/silkeborg/boligudlejning/d2206559-ca66-4d2c-a779-01b401d1ceab,37.500.000 kr.,2.268.624 kr.,1.194 kr.,307.387 kr.,161 kr.,"5,3 %",19.747 kr.,1.899 m²,12.080 m²,A15,"Østervang 50-96, 8654 Bryrup",56.0212962,9.5248316
https://www.ejendomstorvet.dk/investering/sydjylland/vejen/lager-produktion/c22d58fa-7e99-49ba-8780-d2fe8a94eed9,4.795.000 kr.,664.896 kr.,265 kr.,213.370 kr.,85 kr.,"9,5 %",1.911 kr.,2.509 m²,6.020 m²,G,"Park Alle 15, 6600 Vejen",55.475629,9.154483
https://www.ejendomstorvet.dk/investering/vest-og-sydsjaelland/lolland/kontor/a0769f94-71ed-46b6-9eaa-e0fb3b437770,9.500.000 kr.,272.516 kr.,38 kr.,127.597 kr.,17 kr.,"0,0 %",1.334 kr.,7.121 m²,35.726 m²,C,"C. E. Christiansens Vej 12, 4930 Maribo",54.779064,11.504519
https://www.ejendomstorvet.dk/investering/oestjylland/randers/boligudlejning/2ec9910d-18e9-454b-ba93-d9834a164b9f,12.750.000 kr.,966.891 kr.,796 kr.,227.495 kr.,187 kr.,"5,9 %",10.502 kr.,1.214 m²,6.623 m²,D,"Rensdyrvej 8, 8960 Randers SØ",56.445956,10.073722
https://www.ejendomstorvet.dk/investering/oestjylland/hedensted/boligudlejning/23a768da-f6f4-417a-be65-387e37490269,7.150.000 kr.,444.581 kr.,1.134 kr.,53.715 kr.,137 kr.,"5,5 %",18.239 kr.,392 m²,1.626 m²,A15,"Klakringvej 73A-D, 7130 Juelsminde, 7130 Juelsminde",,
https://www.ejendomstorvet.dk/investering/sydjylland/varde/boligudlejning/fb99778b-69cd-4f19-8078-f3d9d62fca4e,1.565.000 kr.,263.432 kr.,580 kr.,113.032 kr.,248 kr.,"9,8 %",3.447 kr.,454 m²,1.594 m²,F,"Storegade 9A, 6855 Outrup",55.719096,8.34461
https://www.ejendomstorvet.dk/investering/nordsjaelland/fredensborg/andre-typer/cdea17fb-8b5c-400a-a8bd-bae74be03d6d,225.000 kr.,24.300 kr.,675 kr.,9.498 kr.,263 kr.,"6,6 %",6.250 kr.,36 m²,27.512 m²,Ikke krav om energimærke,"Mellemengen 164, 2980 Kokkedal",55.912975,12.493263
https://www.ejendomstorvet.dk/investering/oestjylland/favrskov/grunde/ae72d9d0-1d5d-4beb-a57e-8fd3ce31fc92,7.500.000 kr.,9.330 kr.,"-0,1 %",,,,,4.002 m²,Ikke krav om energimærke,Ikke krav om energimærke,"Anbækvej 16A, 8450 Hammel",56.254249,9.859987
https://www.ejendomstorvet.dk/investering/nordsjaelland/fredensborg/andre-typer/90953a34-9d66-4635-bb3a-f482aa2e959b,1.840.000 kr.,151.200 kr.,700 kr.,45.778 kr.,211 kr.,"5,7 %",8.518 kr.,216 m²,27.512 m²,Ikke krav om energimærke,"Mellemengen 163, , 2980 Kokkedal",55.912997,12.493265
https://www.ejendomstorvet.dk/investering/sydjylland/aabenraa/kontor/68b20df9-b84b-4da4-a4c2-2439d677c121,2.750.000 kr.,312.000 kr.,678 kr.,264.000 kr.,573 kr.,"9,6 %",5.978 kr.,460 m²,2.898 m²,Ikke krav om energimærke,"Østergade 51A-B, 6230 Rødekro",55.0705007,9.3417058
https://www.ejendomstorvet.dk/investering/vestjylland/viborg/andre-typer/cfeb4930-92b0-4769-a63c-3dacc0bb8afa,12.900.000 kr.,794.817 kr.,872 kr.,163.553 kr.,179 kr.,"4,9 %",14.160 kr.,911 m²,2.991 m²,C,"Vesterbrogade 18A, 8800 Viborg",56.450142,9.398123
https://www.ejendomstorvet.dk/investering/vestjylland/viborg/boligudlejning/719a7c02-f58b-44c8-9dcc-6475e335cfa0,31.150.000 kr.,1.953.567 kr.,918 kr.,435.676 kr.,204 kr.,"4,9 %",14.651 kr.,2.126 m²,2.991 m²,E,"Jyllandsgade 5, 8800 Viborg",56.449635,9.396911
https://www.ejendomstorvet.dk/investering/sydjylland/esbjerg/kontor/ac940ba6-422d-4e66-bf6e-227eb699d223,43.200.000 kr.,162.975 kr.,47 kr.,"8,5 %",12.514 kr.,,,3.452 m²,5.915 m²,C,"Exnersgade 33, 6700 Esbjerg",55.466188,8.459651
https://www.ejendomstorvet.dk/investering/sydjylland/aabenraa/boligudlejning/a7ce6a31-7aa1-4a55-9ac9-bd3fb13376f2,2.175.000 kr.,386.400 kr.,535 kr.,155.136 kr.,214 kr.,"10,7 %",3.012 kr.,722 m²,1.585 m²,E,"Kastanievej 5A-C, 6360 Tinglev",54.9354845,9.2541276
https://www.ejendomstorvet.dk/investering/nordsjaelland/egedal/lager-produktion/17794dcb-1419-47f5-8894-f227bf1c1b56,10.985.000 kr.,900.000 kr.,687 kr.,119.593 kr.,91 kr.,"7,1 %",8.391 kr.,1.309 m²,4.000 m²,B,"Stenhøjvej 4, 3650 Ølstykke",55.761891,12.138921
https://www.ejendomstorvet.dk/investering/vest-og-sydsjaelland/lolland/andre-typer/2b7d2bdd-4ec0-4a8e-adbf-938d67ecdb7b,5.500.000 kr.,315.756 kr.,102 kr.,130.592 kr.,42 kr.,"3,4 %",1.787 kr.,3.077 m²,3.439 m²,Ikke krav om energimærke,"Østergade 7, 4900 Nakskov",54.831161,11.140878
https://www.ejendomstorvet.dk/investering/nordsjaelland/halsnaes/andre-typer/34434f78-7358-4c07-bd3c-12876986ee3c,5.500.000 kr.,25.646 kr.,160 kr.,"-0,5 %",34.375 kr.,,,160 m²,5.567 m²,Ikke krav om energimærke,"Hanehovedvej 101, 3300 Frederiksværk",55.972393,11.997622
https://www.ejendomstorvet.dk/investering/oestjylland/odder/hotel-restaurant/f9be2292-984a-4331-82a3-8e3c4edd2a95,6.000.000 kr.,20.390 kr.,48 kr.,"-0,3 %",14.354 kr.,,,418 m²,1.541 m²,Ikke krav om energimærke,"Kystvejen 8, , 8300 Odder",55.979692,10.249778
https://www.ejendomstorvet.dk/investering/oestjylland/aarhus/lager-produktion/951694aa-bd87-4b20-a565-ad8fa096b031,19.325.000 kr.,1.461.600 kr.,572 kr.,195.746 kr.,76 kr.,"6,7 %",7.566 kr.,2.554 m²,10.270 m²,Ikke krav om energimærke,"Bøgekildevej 36, 8361 Hasselager",56.102844,10.080031
https://www.ejendomstorvet.dk/investering/sydjylland/vejle/lager-produktion/1b8cd7bb-bffc-414f-9c2c-bef7e897115a,16.900.000 kr.,1.431.937 kr.,395 kr.,182.540 kr.,50 kr.,"7,4 %",4.672 kr.,3.617 m²,10.188 m²,B,"Ferrarivej 10, 7100 Vejle",55.672496,9.591359
https://www.ejendomstorvet.dk/investering/vest-og-sydsjaelland/stevns/boligudlejning/dd6677a7-ecf5-430c-bf32-af9f4e7b8cd4,2.995.000 kr.,333.600 kr.,1.097 kr.,98.938 kr.,325 kr.,"8,0 %",9.851 kr.,304 m²,7.136 m²,E,"Borgergade 16, 4672 Klippinge",55.367181,12.340893
https://www.ejendomstorvet.dk/investering/koebenhavns-omegn/hoeje-taastrup/boligudlejning/0f010d77-5da2-4752-87c7-d4025ab9df8f,9.500.000 kr.,655.636 kr.,1.606 kr.,41.362 kr.,101 kr.,"6,6 %",23.284 kr.,408 m²,1.716 m²,D,"Kingosvej 8A-B, 2630 Taastrup",55.6564568,12.3044393
https://www.ejendomstorvet.dk/investering/oestjylland/horsens/boligudlejning/1c013d4a-bce7-4468-96a0-85851f522b5f,14.500.000 kr.,916.800 kr.,1.053 kr.,120.474 kr.,138 kr.,"5,6 %",16.666 kr.,870 m²,2.158 m²,A15,"Park Alle 20, 8700 Horsens",55.895159,9.768388
https://www.ejendomstorvet.dk/investering/nordsjaelland/rudersdal/kontor/c0e83890-20fa-4780-8440-c64459e660de,19.995.000 kr.,1.632.768 kr.,850 kr.,96.000 kr.,50 kr.,"8,1 %",10.414 kr.,1.920 m²,5.540 m²,D,"Blokken 76, 3460 Birkerød",55.837294,12.399675
https://www.ejendomstorvet.dk/investering/fyn/assens/andre-typer/d3547954-9038-47f9-97c9-09cca2f4d02a,1.675.000 kr.,32.772 kr.,26 kr.,"0,0 %",1.379 kr.,,,1.214 m²,1.953 m²,Ikke krav om energimærke,"Ebberupvej 67, 5631 Ebberup",55.243065,9.976201
https://www.ejendomstorvet.dk/investering/koebenhavns-omegn/glostrup/lager-produktion/732a1686-b77c-4a60-89b2-24fbe36ed50b,630.000.000 kr.,51.199.481 kr.,545 kr.,3.846.847 kr.,40 kr.,"6,6 %",6.707 kr.,93.919 m²,80.113 m²,D,"Langagervej 60, 2600 Glostrup",55.675067,12.413178
https://www.ejendomstorvet.dk/investering/vest-og-sydsjaelland/faxe/lager-produktion/2d4b251a-d812-49b9-9564-d472ffda1f86,105.000.000 kr.,8.844.371 kr.,453 kr.,1.223.435 kr.,62 kr.,"7,5 %",5.383 kr.,19.505 m²,100.053 m²,D,"Symbiosen 5, 4683 Rønnede",55.262917,12.005096
https://www.ejendomstorvet.dk/investering/sydjylland/soenderborg/andre-typer/7fdeba30-b371-43df-a4fd-7ff0c4381d11,7.995.000 kr.,908.772 kr.,662 kr.,259.189 kr.,189 kr.,"8,4 %",5.831 kr.,1.371 m²,2.912 m²,E,"Borggade 7, 6300 Gråsten",54.92105,9.591966
https://www.ejendomstorvet.dk/investering/vestjylland/viborg/boligudlejning/2f751fc0-6c37-493d-a459-e1230da275e6,5.700.000 kr.,412.176 kr.,1.144 kr.,59.196 kr.,164 kr.,"6,2 %",15.833 kr.,360 m²,1.800 m²,C,"Jørgens Alle 28A, 8850 Bjerringbro",56.379212,9.666591
https://www.ejendomstorvet.dk/investering/oestjylland/aarhus/lager-produktion/4ff9c5c0-5a9f-4c40-91bd-29360b0511ca,49.900.000 kr.,3.949.617 kr.,508 kr.,237.883 kr.,30 kr.,"8,8 %",6.426 kr.,7.765 m²,13.109 m²,C,"Jens Juuls Vej 16-18, 8260 Viby J",,
https://www.ejendomstorvet.dk/investering/oestjylland/syddjurs/boligudlejning/e5bade0c-03e1-4bc9-be7c-1bd6a6f76c16,3.150.000 kr.,300.000 kr.,755 kr.,96.407 kr.,242 kr.,"6,6 %",7.934 kr.,397 m²,1.536 m²,C,"Molsvej 98, 8400 Ebeltoft",56.252822,10.551386
https://www.ejendomstorvet.dk/investering/sydjylland/billund/boligudlejning/62224a58-f56f-4572-8b9d-27a44e3fe409,82.500.000 kr.,4.789.324 kr.,1.197 kr.,616.730 kr.,154 kr.,"5,1 %",20.625 kr.,4.000 m²,17.294 m²,A20,"Tøndebåndet 1-43, 7190 Billund",55.7180808,9.1071389
https://www.ejendomstorvet.dk/investering/sydjylland/haderslev/andre-typer/c2d1b162-4ffa-4ba3-b8d4-4971b431d095,4.100.000 kr.,488.700 kr.,3.759 kr.,136.794 kr.,1.052 kr.,"8,6 %",31.538 kr.,130 m²,4.848 m²,G,"Østergård 1 & 4, 6510 Gram",55.2822026,9.060265
https://www.ejendomstorvet.dk/investering/nordsjaelland/frederikssund/lager-produktion/af079e1f-d8da-4267-a8f6-8d4efa2833b5,4.950.000 kr.,500.261 kr.,440 kr.,161.036 kr.,141 kr.,"6,8 %",4.361 kr.,1.135 m²,6.036 m²,F,"Industrivej 12, 3550 Slangerup",55.84742,12.190865
https://www.ejendomstorvet.dk/investering/vest-og-sydsjaelland/vordingborg/andre-typer/94a70b86-0779-4866-a7b2-a37dc1bf7a58,2.990.000 kr.,86.426 kr.,96 kr.,"0,0 %",3.329 kr.,,,898 m²,2.829 m²,E,"Kastanievej 2, 4760 Vordingborg",55.015999,11.899639
https://www.ejendomstorvet.dk/investering/oestjylland/aarhus/kontor/e67db585-7b97-4515-aca0-c5e5a5330071,19.500.000 kr.,1.526.458 kr.,715 kr.,60.000 kr.,28 kr.,"7,7 %",9.137 kr.,2.134 m²,3.087 m²,Ikke krav om energimærke,"Runetoften 14B, 8210 Aarhus V",56.17537,10.140962
https://www.ejendomstorvet.dk/investering/sydjylland/aabenraa/boligudlejning/364e9f45-2d2b-4489-a097-ea162cd0d97c,2.700.000 kr.,321.498 kr.,519 kr.,105.727 kr.,170 kr.,"8,2 %",4.361 kr.,619 m²,2.212 m²,B,"Vestergade 7A, 6330 Padborg",54.821328,9.342697
https://www.ejendomstorvet.dk/investering/fyn/assens/andre-typer/b1b0636c-8922-46d9-8c90-2db10b9dbae2,1.975.000 kr.,22.187 kr.,18 kr.,"0,0 %",1.662 kr.,,,1.188 m²,7.976 m²,D,"Fåborgvej 10, 5610 Assens",55.262603,9.908012
https://www.ejendomstorvet.dk/investering/vest-og-sydsjaelland/kalundborg/grunde/2353cc4f-1cc4-4329-ad8b-15fc26d7a817,"0,0 %",,,,,,,10.451 m²,Ikke krav om energimærke,Ikke krav om energimærke,"Tjørnens Kvarter 66, 4270 Høng",55.501802,11.300092
https://www.ejendomstorvet.dk/investering/vest-og-sydsjaelland/slagelse/boligudlejning/93f35714-e5d6-4d91-bfe1-3b944f8a876f,14.000.000 kr.,879.489 kr.,1.064 kr.,184.927 kr.,223 kr.,"5,0 %",16.949 kr.,826 m²,2.120 m²,Ikke krav om energimærke,"Holbækvej 21A, 4200 Slagelse",55.413185,11.371501
https://www.ejendomstorvet.dk/investering/vestjylland/herning/andre-typer/ff9a82b0-6a14-47ec-9d81-fd0bd6db1e2d,24.000.000 kr.,1.630.476 kr.,943 kr.,247.095 kr.,142 kr.,"5,9 %",13.888 kr.,1.728 m²,1.928 m²,C,"Østergade 36, 38 og , 7400 Herning",,
https://www.ejendomstorvet.dk/investering/fyn/odense/andre-typer/837f038c-d9d0-419a-a5ee-6dad897857c7,7.500.000 kr.,720.000 kr.,278 kr.,129.963 kr.,50 kr.,"8,0 %",2.899 kr.,2.587 m²,12.157 m²,Ikke krav om energimærke,"Lunden 10, 5320 Agedrup",55.421313,10.466845
https://www.ejendomstorvet.dk/investering/vest-og-sydsjaelland/guldborgsund/andre-typer/12aae43b-07e9-477d-8e27-882130e8f544,5.000.000 kr.,492.000 kr.,492 kr.,85.892 kr.,85 kr.,"8,4 %",5.005 kr.,999 m²,6.000 m²,Ikke krav om energimærke,"Herningvej 25, 4800 Nykøbing F",54.784319,11.878573
https://www.ejendomstorvet.dk/investering/vest-og-sydsjaelland/guldborgsund/andre-typer/9805ed8a-ef97-4a33-b535-f3c25eb054e1,7.000.000 kr.,798.000 kr.,330 kr.,148.188 kr.,61 kr.,"9,7 %",2.894 kr.,2.418 m²,12.633 m²,Ikke krav om energimærke,"Nystedvej 18, 4990 Sakskøbing",54.794742,11.639
https://www.ejendomstorvet.dk/investering/sydjylland/kolding/detailhandel-butik/c63c3905-c8a8-4555-94f8-5f79c5d06266,1.998.000 kr.,279.000 kr.,558 kr.,115.807 kr.,231 kr.,"8,4 %",3.996 kr.,500 m²,180 m²,C,"Torvet 4, 6580 Vamdrup, 6580 Vamdrup",,
https://www.ejendomstorvet.dk/investering/nordsjaelland/rudersdal/lager-produktion/ef167aef-a844-42aa-aa86-5413b824368d,15.995.000 kr.,1.135.723 kr.,689 kr.,280.585 kr.,170 kr.,"7,1 %",9.705 kr.,1.648 m²,2.738 m²,C,"Blokken 38, 3460 Birkerød",55.834758,12.401742
https://www.ejendomstorvet.dk/investering/vest-og-sydsjaelland/kalundborg/andre-typer/ff159dcd-23ed-4371-89d6-82c42faa6ec7,9.800.000 kr.,942.580 kr.,705 kr.,187.902 kr.,140 kr.,"7,8 %",7.335 kr.,1.336 m²,2.264 m²,E,"Hovedgaden 32, 4270 Høng",55.509849,11.288357
https://www.ejendomstorvet.dk/investering/nordjylland/frederikshavn/detailhandel-butik/9f557c47-b49e-447d-a3d9-7679c1089b1f,12.495.000 kr.,1.076.780 kr.,1.129 kr.,72.615 kr.,76 kr.,"8,0 %",13.111 kr.,953 m²,2.953 m²,B,"Bredgade 5, 9750 Østervrå",57.341234,10.237804
https://www.ejendomstorvet.dk/investering/vestjylland/herning/boligudlejning/86a631db-ef34-434c-b32c-3e396b5a9062,13.900.000 kr.,1.134.477 kr.,627 kr.,261.035 kr.,144 kr.,"6,3 %",7.692 kr.,1.807 m²,3.211 m²,C,"Højgade 2A, 2, 7400 Herning",,
https://www.ejendomstorvet.dk/investering/vest-og-sydsjaelland/odsherred/boligudlejning/b6daa48e-010e-49c1-a7cf-e2120cef438b,3.695.000 kr.,210.624 kr.,572 kr.,115.113 kr.,312 kr.,"2,6 %",10.040 kr.,368 m²,3.105 m²,B,"Vesterbro 30, 4500 Nykøbing Sj",55.922213,11.661057
https://www.ejendomstorvet.dk/investering/oestjylland/randers/kontor/dabbaa51-5a04-4aac-8c83-44e5d3810006,5.400.000 kr.,600.600 kr.,690 kr.,124.839 kr.,143 kr.,"8,8 %",6.206 kr.,870 m²,2.351 m²,C,"Agerskellet 16, 8920 Randers NV",56.491383,10.021602
https://www.ejendomstorvet.dk/investering/byen-koebenhavn/koebenhavn/boligudlejning/465320e9-73a6-4197-9751-ed4e549b3c8d,151.800.000 kr.,4.447.522 kr.,736 kr.,2.805.839 kr.,464 kr.,"1,1 %",25.144 kr.,6.037 m²,1.650 m²,D,"Sundholmsvej 41, 2300 København S",55.661586,12.597582
https://www.ejendomstorvet.dk/investering/byen-koebenhavn/koebenhavn/boligudlejning/d4ad2029-091d-4d17-933c-810b9f1a1901,60.800.000 kr.,1.842.580 kr.,882 kr.,987.517 kr.,472 kr.,"1,4 %",29.118 kr.,2.088 m²,1.702 m²,E,"Strandvejen 32B, 2100 København Ø",55.721012,12.577543
https://www.ejendomstorvet.dk/investering/sydjylland/billund/boligudlejning/dcc1666a-b463-4e99-bed3-c698e6e6b2ed,1.395.000 kr.,72.000 kr.,187 kr.,33.362 kr.,86 kr.,"2,8 %",3.623 kr.,385 m²,1.919 m²,Ikke krav om energimærke,"Daltoften 32, 7200 Grindsted",55.759204,8.948258
https://www.ejendomstorvet.dk/investering/oestjylland/aarhus/kontor/63dcd242-d8b7-45b1-a43c-1763a7f0b0ee,15.500.000 kr.,1.337.448 kr.,760 kr.,253.446 kr.,144 kr.,"8,2 %",8.816 kr.,1.758 m²,5.770 m²,D,"Jegstrupvej 96A, 8361 Hasselager",56.10089,10.110918
https://www.ejendomstorvet.dk/investering/nordsjaelland/egedal/boligudlejning/4828691c-440c-4e96-a621-3bd9b2e64ea4,6.950.000 kr.,486.586 kr.,1.315 kr.,123.412 kr.,333 kr.,"5,3 %",18.783 kr.,370 m²,1.765 m²,C,"Veksø Bygade 26, 3670 Veksø Sjælland",55.754912,12.238072
https://www.ejendomstorvet.dk/investering/nordsjaelland/hilleroed/lager-produktion/2204875c-d096-4a06-9f06-4d0bd7291c07,14.995.000 kr.,997.447 kr.,413 kr.,77.390 kr.,32 kr.,"6,1 %",6.214 kr.,2.413 m²,7.500 m²,A10,"Emblasvang 1, 3400 Hillerød",55.92751,12.266552
https://www.ejendomstorvet.dk/investering/nordjylland/hjoerring/boligudlejning/03340640-ea61-4fae-b7bd-19dd2232fece,2.395.000 kr.,283.296 kr.,784 kr.,81.086 kr.,224 kr.,"8,6 %",6.634 kr.,361 m²,2.150 m²,C,"Skallerupvej 461A, 9800 Hjørring",57.470696,9.874141
