Adresse,City,Link,Type,Størrelse,Pris,Pris_m2,latitude,longitude,kommune
Christian X's Vej 2,6100 Haderslev,https://www.ejendomstorvet.dk/koeb/sydjylland/haderslev/detailhandel-butik/561e3d79-4097-4cb8-8ec0-0fc72e04c873,"Detailhandel & butik, salg",996 m²,9.150.000 kr.,9.186 kr./m²,56.136015,10.175321,Aarhus Kommune
Dammen 2,6330 Padborg,https://www.ejendomstorvet.dk/koeb/sydjylland/aabenraa/detailhandel-butik/f4112e69-dbbe-410a-9a4d-868f4a2f57fe,"Detailhandel & butik, salg",890 m²,6.995.000 kr.,7.859 kr./m²,56.266598,10.208196,Aarhus Kommune
Bryggergade 3A,7400 Herning,https://www.ejendomstorvet.dk/koeb/vestjylland/herning/detailhandel-butik/87315401-7847-4a60-af4f-bde88a029559,"Detailhandel & butik, salg",247 m²,3.200.000 kr.,12.955 kr./m²,56.13574,8.973521,Herning Kommune
Svalehøjvej 9A,3650 Ølstykke,https://www.ejendomstorvet.dk/koeb/nordsjaelland/egedal/lager-produktion/480b958b-2611-4ff8-938d-53e7d600faa0,"Lager & produktion, salg",1.027 m²,10.000.000 kr.,9.737 kr./m²,55.767401,12.137776,Egedal Kommune
Pingels Alle 31,3700 Rønne,https://www.ejendomstorvet.dk/koeb/bornholm/bornholm/grunde/de728a50-b38a-4608-966e-887f522aef36,"Grunde, salg",12.234 m²,2.500.000 kr.,0 kr./m²,55.100365,14.707927,Bornholms Regionskommune
Vestre Strandvej 7,9990 Skagen,https://www.ejendomstorvet.dk/koeb/nordjylland/frederikshavn/andre-typer/69fcdbc3-1f80-47e6-afaf-23ffb30bf792,"Andre typer, salg",88 m²,800.000 kr.,9.090 kr./m²,55.466516,8.576017,Esbjerg Kommune
Barrit Langgade 105,7150 Barrit,https://www.ejendomstorvet.dk/koeb/oestjylland/hedensted/lager-produktion/b1be79d1-bb6d-4578-9220-bf232cd0b7a8,"Lager & produktion, salg",2.580 m²,3.975.000 kr.,1.540 kr./m²,55.711761,9.892293,Hedensted Kommune
Østergade 2,7400 Herning,https://www.ejendomstorvet.dk/koeb/vestjylland/herning/detailhandel-butik/1d8a5c0c-4279-42a5-a726-581471c3b3ee,"Detailhandel & butik, salg",3.374 m²,27.800.000 kr.,8.239 kr./m²,56.154497,10.204363,Aarhus Kommune
Barrit Langgade 102B,7150 Barrit,https://www.ejendomstorvet.dk/koeb/oestjylland/hedensted/lager-produktion/c8843c19-8a43-4179-96ee-82b73e69770d,"Lager & produktion, salg",919 m²,1.250.000 kr.,1.360 kr./m²,55.711411,9.891731,Hedensted Kommune
Silkeborgvej 344,8700 Horsens,https://www.ejendomstorvet.dk/koeb/oestjylland/horsens/lager-produktion/231a2f58-0854-47b2-8718-2a2647da8ebc,"Lager & produktion, salg",1.063 m²,4.500.000 kr.,4.233 kr./m²,55.909539,9.721211,Horsens Kommune
Stenhusvej 49,4300 Holbæk,https://www.ejendomstorvet.dk/koeb/vest-og-sydsjaelland/holbaek/lager-produktion/31c7aebb-2a86-488a-a291-239507353424,"Lager & produktion, salg",1.072 m²,7.995.000 kr.,7.458 kr./m²,55.70009,11.673915,Holbæk Kommune
Nørumvej 79,9800 Hjørring,https://www.ejendomstorvet.dk/koeb/nordjylland/hjoerring/hotel-restaurant/1874ec50-f5b7-4db8-b248-948b2db5428b,"Hotel & restaurant, salg",968 m²,5.995.000 kr.,6.193 kr./m²,57.464039,9.893487,Hjørring Kommune
Hedegårdsvej 14,7430 Ikast,https://www.ejendomstorvet.dk/koeb/vestjylland/ikast-brande/andre-typer/2a1d18de-f4f7-440d-971d-c899fd856ebb,"Andre typer, salg",849 m²,5.995.000 kr.,7.061 kr./m²,55.638946,12.098245,Roskilde Kommune
Nystedvej 1,7400 Herning,https://www.ejendomstorvet.dk/koeb/vestjylland/herning/lager-produktion/cfd52d02-4ab2-4ade-bab8-b558449bfaa6,"Lager & produktion, salg",2.140 m²,8.900.000 kr.,4.158 kr./m²,55.669102,12.493228,Københavns Kommune
Industriholmen 7,2650 Hvidovre,https://www.ejendomstorvet.dk/koeb/koebenhavns-omegn/hvidovre/lager-produktion/54a6efa1-9cb4-4991-9d73-3869735d102a,"Lager & produktion, salg",1.157 m²,13.000.000 kr.,11.235 kr./m²,55.61156,12.476785,Hvidovre Kommune
Industrivej 8,4160 Herlufmagle,https://www.ejendomstorvet.dk/koeb/vest-og-sydsjaelland/naestved/lager-produktion/5bedd768-2552-49d3-bb83-fdd8edc8453f,"Lager & produktion, salg",571 m²,495.000 kr.,866 kr./m²,56.11122,10.132007,Aarhus Kommune
Arresøvej 9,8240 Risskov,https://www.ejendomstorvet.dk/koeb/oestjylland/aarhus/detailhandel-butik/177a2f34-6ad0-474a-a8f1-704458cb5906,"Detailhandel & butik, salg",424 m²,8.500.000 kr.,20.047 kr./m²,55.935662,12.099362,Hillerød Kommune
"Banesporet 6, m.fl.",8930 Randers NØ,https://www.ejendomstorvet.dk/koeb/oestjylland/randers/grunde/6bea936a-aa8b-4209-8e3e-1dba77e64ddb,"Grunde, salg",32.261 m²,40.800.000 kr.,0 kr./m²,,,
Pederstrupvej 120C,4943 Torrig L,https://www.ejendomstorvet.dk/koeb/vest-og-sydsjaelland/lolland/hotel-restaurant/0ad83423-03e1-4e05-8aee-e69982dc6d43,"Hotel & restaurant, salg",2.283 m²,7.000.000 kr.,3.066 kr./m²,54.897733,11.261545,Lolland Kommune
Ribe Landevej 397,7100 Vejle,https://www.ejendomstorvet.dk/koeb/sydjylland/vejle/grunde/8f8c16c5-00e0-4e08-a0bc-e868b52a70f2,"Grunde, salg",16.000 m²,4.150.000 kr.,0 kr./m²,55.690399,9.464439,Vejle Kommune
Vegavej 1,8700 Horsens,https://www.ejendomstorvet.dk/koeb/oestjylland/horsens/detailhandel-butik/e6a62f09-7bd6-4315-b0a5-3a6bdc791195,"Detailhandel & butik, salg",613 m²,6.950.000 kr.,11.337 kr./m²,56.128116,10.186259,Aarhus Kommune
Djalma Lunds Gård 7,4000 Roskilde,https://www.ejendomstorvet.dk/koeb/oestsjaelland/roskilde/detailhandel-butik/e30e2db3-5873-4617-849c-ba999075e055,"Detailhandel & butik, salg",115 m²,4.325.000 kr.,37.608 kr./m²,55.641547,12.082631,Roskilde Kommune
Slotsgade 10,8900 Randers C,https://www.ejendomstorvet.dk/koeb/oestjylland/randers/detailhandel-butik/5b972c67-f0de-401e-a5fb-94c02fab179b,"Detailhandel & butik, salg",129 m²,2.250.000 kr.,17.441 kr./m²,55.688276,12.557277,Københavns Kommune
Nykøbingvej 82,4300 Holbæk,https://www.ejendomstorvet.dk/koeb/vest-og-sydsjaelland/holbaek/lager-produktion/950230ad-4fd9-4a26-83f8-4004e8f5f727,"Lager & produktion, salg",769 m²,3.995.000 kr.,5.195 kr./m²,54.877138,11.855255,Guldborgsund Kommune
Finlandsvej 8,7100 Vejle,https://www.ejendomstorvet.dk/koeb/sydjylland/vejle/lager-produktion/f5b13e08-49f3-443c-ad5b-59deff66aab0,"Lager & produktion, salg",315 m²,3.200.000 kr.,10.158 kr./m²,56.138814,8.954461,Herning Kommune
Sundsholmen 14,9400 Nørresundby,https://www.ejendomstorvet.dk/koeb/nordjylland/aalborg/lager-produktion/a12df903-52f3-4483-a660-d0a620fd5d17,"Lager & produktion, salg",4.325 m²,21.500.000 kr.,4.971 kr./m²,57.064917,9.951836,Aalborg Kommune
Ndr. Fabriksvej - 4500 m² 17,8722 Hedensted,https://www.ejendomstorvet.dk/koeb//grunde/e6ab2aa9-3b04-4bf8-b804-e29c6c98688b,"Grunde, salg",3.000 m²,795.000 kr.,265 kr./m²,,,
Ndr. Fabriksvej - 4500 m² 17,8722 Hedensted,https://www.ejendomstorvet.dk/koeb//grunde/56db13b0-4d15-4618-a014-ec063f569651,"Grunde, salg",4.500 m²,995.000 kr.,0 kr./m²,,,
Østerhovedvej 43,7323 Give,https://www.ejendomstorvet.dk/koeb/sydjylland/vejle/hotel-restaurant/a991cf3e-961b-428e-aa55-743b2dd74f07,"Hotel & restaurant, salg",1.803 m²,13.900.000 kr.,7.709 kr./m²,55.831631,9.300626,Vejle Kommune
Hydrovej 4,6270 Tønder,https://www.ejendomstorvet.dk/koeb/sydjylland/toender/lager-produktion/6609dcdf-639a-4a91-b0f8-265bc541847b,"Lager & produktion, salg",1.347 m²,4.995.000 kr.,3.708 kr./m²,54.951033,8.863583,Tønder Kommune
Dalager 8-10,2605 Brøndby,https://www.ejendomstorvet.dk/koeb/koebenhavns-omegn/broendby/lager-produktion/ac62974a-dc23-49e9-92df-bba1fb40b90a,"Lager & produktion, salg",2.680 m²,24.000.000 kr.,8.955 kr./m²,55.966827,8.6472266,Ringkøbing-Skjern Kommune
Ndr Landevej 24B & 24C,6270 Tønder,https://www.ejendomstorvet.dk/koeb/sydjylland/toender/andre-typer/00c3230d-569b-4bb8-a20a-fa63364a7aa8,"Andre typer, salg",1.049 m²,4.995.000 kr.,4.761 kr./m²,54.9459103,8.8559602,Tønder Kommune
Jegstrupvej 58,8361 Hasselager,https://www.ejendomstorvet.dk/koeb/oestjylland/aarhus/lager-produktion/49cf4022-e39c-4a8a-88c0-10198dedbc28,"Lager & produktion, salg",468 m²,4.950.000 kr.,10.576 kr./m²,56.105646,10.110056,Aarhus Kommune
Tonne Kjærsvej 64,7000 Fredericia,https://www.ejendomstorvet.dk/koeb/sydjylland/fredericia/lager-produktion/7e8f5beb-e7e6-4ed1-b362-fa5b3251be06,"Lager & produktion, salg",4.960 m²,45.300.000 kr.,9.133 kr./m²,55.535636,9.69563,Fredericia Kommune
Håndværkervej 36A,9320 Hjallerup,https://www.ejendomstorvet.dk/koeb/nordjylland/broenderslev/lager-produktion/279c8fa1-4ccb-4b98-8deb-91ba84c6bb55,"Lager & produktion, salg",647 m²,1.995.000 kr.,3.083 kr./m²,57.174995,10.157094,Brønderslev Kommune
"Amaliegade 36, kld. tv., 1256 København K",1256 København K,https://www.ejendomstorvet.dk/koeb/byen-koebenhavn/koebenhavn/detailhandel-butik/6fdee955-9d0d-4f9a-8923-e12e4ce5e471,"Detailhandel & butik, salg",215 m²,2.500.000 kr.,11.627 kr./m²,,,
Ndr. Fabriksvej - 9000 m² 17,8722 Hedensted,https://www.ejendomstorvet.dk/koeb//grunde/2d8500b9-04e7-40c9-87b1-9ce7538ec93f,"Grunde, salg",9.000 m²,1.995.000 kr.,221 kr./m²,,,
Nørre Alle 49,7760 Hurup Thy,https://www.ejendomstorvet.dk/koeb/nordjylland/thisted/lager-produktion/8aaccf4f-5190-4c33-bab6-35c86066d0bb,"Lager & produktion, salg",894 m²,2.600.000 kr.,2.908 kr./m²,55.542451,9.77195,Middelfart Kommune
Værkstedvej 16,2500 Valby,https://www.ejendomstorvet.dk/koeb/byen-koebenhavn/koebenhavn/lager-produktion/c20993bb-258d-4182-89f2-3014044adba3,"Lager & produktion, salg",125 m²,3.000.000 kr.,24.000 kr./m²,55.652461,12.505705,Københavns Kommune
Frodesgade 54,6700 Esbjerg,https://www.ejendomstorvet.dk/koeb/sydjylland/esbjerg/andre-typer/5ebfac58-632b-487a-86c6-55d31a926594,"Andre typer, salg",164 m²,7.995.000 kr.,48.750 kr./m²,55.47198,8.452314,Esbjerg Kommune
Nørregade 28,7500 Holstebro,https://www.ejendomstorvet.dk/koeb/vestjylland/holstebro/detailhandel-butik/1864937a-bea3-41d9-93df-728765d9d29e,"Detailhandel & butik, salg",436 m²,2.275.000 kr.,5.217 kr./m²,55.681577,12.571263,Københavns Kommune
Gl Skolevej 29,6731 Tjæreborg,https://www.ejendomstorvet.dk/koeb/sydjylland/esbjerg/andre-typer/45478489-a007-4c71-a8c0-2c68d754932a,"Andre typer, salg",643 m²,750.000 kr.,1.166 kr./m²,55.53027,10.305031,Nordfyns Kommune
Elmelundsvej 14,5200 Odense V,https://www.ejendomstorvet.dk/koeb/fyn/odense/grunde/8b5adbbb-d7f5-4cdf-ac68-6f5d459f8f35,"Grunde, salg",7.750 m²,11.500.000 kr.,6.071 kr./m²,55.388437,10.328466,Odense Kommune
Skærskovgårdsvej 8,8600 Silkeborg,https://www.ejendomstorvet.dk/koeb/oestjylland/silkeborg/grunde/78bbedec-d056-4eba-964b-3b1f51c25679,"Grunde, salg",10.981 m²,2.995.000 kr.,0 kr./m²,56.146073,9.449748,Silkeborg Kommune
erhvervsparken 4,8920 Randers NV,https://www.ejendomstorvet.dk/koeb/oestjylland/randers/lager-produktion/2a7ae616-6387-4f92-811c-3d7876713f25,"Lager & produktion, salg",2.791 m²,11.500.000 kr.,4.120 kr./m²,55.57435,12.103487,Roskilde Kommune
Kobbelvej 49,4780 Stege,https://www.ejendomstorvet.dk/koeb/vest-og-sydsjaelland/vordingborg/lager-produktion/5b2dadf1-0fb8-41bd-abcd-15695491d51f,"Lager & produktion, salg",329 m²,2.495.000 kr.,7.583 kr./m²,54.998451,12.288796,Vordingborg Kommune
Mosevej 20,6760 Ribe,https://www.ejendomstorvet.dk/koeb/sydjylland/esbjerg/detailhandel-butik/40892562-2cfe-411f-9791-bc71b0aaa11f,"Detailhandel & butik, salg",922 m²,5.000.000 kr.,5.422 kr./m²,55.7279,12.517138,Gladsaxe Kommune
Kempesteens Vej 70,6330 Padborg,https://www.ejendomstorvet.dk/koeb/sydjylland/aabenraa/andre-typer/1e342d85-664c-4e61-9c18-45d51d393e11,"Andre typer, salg",492 m²,1.500.000 kr.,3.048 kr./m²,54.842519,9.361436,Aabenraa Kommune
"Skt. Clemens Torv 17, st",8000 Aarhus C,https://www.ejendomstorvet.dk/koeb/oestjylland/aarhus/detailhandel-butik/60b43581-52d2-418b-98ed-4bc7d6ccaa3a,"Detailhandel & butik, salg",64 m²,3.200.000 kr.,50.000 kr./m²,,,
Bakkegårdsvej 111,3050 Humlebæk,https://www.ejendomstorvet.dk/koeb/nordsjaelland/fredensborg/lager-produktion/c969c4e7-cea2-4e66-a450-009bbfad49d4,"Lager & produktion, salg",971 m²,7.485.000 kr.,7.708 kr./m²,55.640663,9.698069,Vejle Kommune
Amager Strandvej 110A ST,2300 København S,https://www.ejendomstorvet.dk/koeb/byen-koebenhavn/koebenhavn/hotel-restaurant/8866558d-9076-4750-a556-40b4d143a72c,"Hotel & restaurant, salg",190 m²,8.500.000 kr.,44.736 kr./m²,,,
Sletten 4,8543 Hornslet,https://www.ejendomstorvet.dk/koeb/oestjylland/syddjurs/grunde/eea4814a-b058-48d8-8042-ebea73ce741b,"Grunde, salg",3.642 m²,1.395.000 kr.,0 kr./m²,55.516242,10.406875,Nordfyns Kommune
"Sankt Jørgens Allé 6, kl",1615 København V,https://www.ejendomstorvet.dk/koeb/byen-koebenhavn/koebenhavn/lager-produktion/1229cc92-cb48-438e-b2fb-960bb4b21046,"Lager & produktion, salg",73 m²,750.000 kr.,10.273 kr./m²,,,
Storskovvej 99,9330 Dronninglund,https://www.ejendomstorvet.dk/koeb/nordjylland/broenderslev/lager-produktion/a1916bd2-8e08-4a8b-aabe-d6167fd20a02,"Lager & produktion, salg",1.700 m²,1.520.000 kr.,894 kr./m²,57.250717,10.296927,Brønderslev Kommune
Vestergade / Torvegade 13,7280 Sønder Felding,https://www.ejendomstorvet.dk/koeb//lager-produktion/d5bcdc27-026c-48b3-9f23-3fa2a2396822,"Lager & produktion, salg",664 m²,1.950.000 kr.,2.936 kr./m²,,,
Viborgvej 273B,7840 Højslev,https://www.ejendomstorvet.dk/koeb/vestjylland/skive/andre-typer/526d7454-81df-469e-9e53-a8df71385d52,"Andre typer, salg",537 m²,2.350.000 kr.,4.376 kr./m²,56.545289,9.125046,Skive Kommune
Rådhusvej 10,2920 Charlottenlund,https://www.ejendomstorvet.dk/koeb/koebenhavns-omegn/gentofte/detailhandel-butik/cc963368-0bc8-4ae8-9837-0b6d715c0488,"Detailhandel & butik, salg",252 m²,1.275.000 kr.,5.059 kr./m²,55.752357,12.571566,Gentofte Kommune
Strandvejen 12,6720 Fanø,https://www.ejendomstorvet.dk/koeb/sydjylland/fanoe/hotel-restaurant/a22a00d1-1936-47e8-8042-c5621cc69110,"Hotel & restaurant, salg",1.231 m²,9.300.000 kr.,7.554 kr./m²,55.717579,12.577534,Københavns Kommune
Barrit Langgade 102B,7150 Barrit,https://www.ejendomstorvet.dk/koeb/oestjylland/hedensted/lager-produktion/5bde23ea-4fbb-4ab7-8233-a84915502db1,"Lager & produktion, salg",3.499 m²,5.225.000 kr.,1.493 kr./m²,55.711411,9.891731,Hedensted Kommune
Gudumvej 63,9260 Gistrup,https://www.ejendomstorvet.dk/koeb/nordjylland/aalborg/andre-typer/94d8f5f8-4969-4d62-aeb0-1bff83012fcf,"Andre typer, salg",900 m²,3.495.000 kr.,3.883 kr./m²,56.936997,10.057552,Aalborg Kommune
Arnbjerg Alle (storparcel) 0,8800 Viborg,https://www.ejendomstorvet.dk/koeb//grunde/4c9c3848-4240-4652-8271-966a40511be6,"Grunde, salg",19.333 m²,19.800.000 kr.,1.024 kr./m²,,,
Petersmindevej 14,5000 Odense C,https://www.ejendomstorvet.dk/koeb/fyn/odense/lager-produktion/a380ba0b-6e76-4bc9-bb14-0d3fa1a4d7ed,"Lager & produktion, salg",843 m²,5.500.000 kr.,6.524 kr./m²,55.402733,10.415174,Odense Kommune
Aastrupvej 63,4850 Stubbekøbing,https://www.ejendomstorvet.dk/koeb/vest-og-sydsjaelland/guldborgsund/andre-typer/ac8f4c3e-5128-48f0-8db6-32876f2bdf5e,"Andre typer, salg",1.454 m²,3.495.000 kr.,2.403 kr./m²,54.862696,12.088254,Guldborgsund Kommune
Brundtland Allé 3,6520 Toftlund,https://www.ejendomstorvet.dk/koeb/sydjylland/toender/andre-typer/83b53881-f6cb-44af-8a87-f6f713ca463c,"Andre typer, salg",1.819 m²,54.000.000 kr.,29.686 kr./m²,55.193995,9.075872,Tønder Kommune
Rødvigvej 34,4673 Rødvig Stevns,https://www.ejendomstorvet.dk/koeb/vest-og-sydsjaelland/stevns/grunde/9ff30136-8951-40cd-ba34-9bcc63012c8e,"Grunde, salg",2.855 m²,1.800.000 kr.,0 kr./m²,55.274422,12.389771,Stevns Kommune
Stenbukken 15,9200 Aalborg SV,https://www.ejendomstorvet.dk/koeb/nordjylland/aalborg/detailhandel-butik/043f5cda-b087-49a0-87f0-e2b38ddad10e,"Detailhandel & butik, salg",1.129 m²,20.500.000 kr.,18.157 kr./m²,56.997648,9.870379,Aalborg Kommune
CO-RO's Vej 1,3600 Frederikssund,https://www.ejendomstorvet.dk/koeb/nordsjaelland/frederikssund/lager-produktion/b1a09359-44ea-418c-99d7-befebdb98d1b,"Lager & produktion, salg",12.521 m²,53.000.000 kr.,4.232 kr./m²,55.849563,12.073511,Frederikssund Kommune
Islandsvej 23D,8700 Horsens,https://www.ejendomstorvet.dk/koeb/oestjylland/horsens/lager-produktion/289ce554-3466-42fd-a16c-36755b4f35e4,"Lager & produktion, salg",723 m²,3.695.000 kr.,5.110 kr./m²,55.859699,9.810384,Horsens Kommune
Østergade 28,4970 Rødby,https://www.ejendomstorvet.dk/koeb/vest-og-sydsjaelland/lolland/hotel-restaurant/4e0524e5-346b-47e1-a6f8-d3ac18567ec6,"Hotel & restaurant, salg",163 m²,695.000 kr.,4.263 kr./m²,56.153866,10.207313,Aarhus Kommune
Gammel Østergade 3A,9400 Nørresundby,https://www.ejendomstorvet.dk/koeb/nordjylland/aalborg/detailhandel-butik/f866f5e7-ff46-4aae-b510-defd81015c04,"Detailhandel & butik, salg",121 m²,995.000 kr.,8.223 kr./m²,57.058759,9.923637,Aalborg Kommune
Ådalsvej 12,8870 Langå,https://www.ejendomstorvet.dk/koeb/oestjylland/favrskov/lager-produktion/b2f2e815-49d4-4496-a449-bca00f01a2ef,"Lager & produktion, salg",962 m²,1.500.000 kr.,1.559 kr./m²,55.690033,12.501744,Københavns Kommune
Sverigesvej 5,6600 Vejen,https://www.ejendomstorvet.dk/koeb/sydjylland/vejen/lager-produktion/61e372c0-5edf-44a2-a62e-3e3b2f21c576,"Lager & produktion, salg",4.074 m²,18.950.000 kr.,4.651 kr./m²,56.138049,8.954312,Herning Kommune
Emil Aarestrups Gade 28,4990 Sakskøbing,https://www.ejendomstorvet.dk/koeb/vest-og-sydsjaelland/guldborgsund/lager-produktion/8e226f89-10ca-4416-9735-6541b1cff3bb,"Lager & produktion, salg",377 m²,895.000 kr.,2.374 kr./m²,54.800883,11.630717,Guldborgsund Kommune
Navervej 22-24,7451 Sunds,https://www.ejendomstorvet.dk/koeb/vestjylland/herning/lager-produktion/acd603ed-b37d-46d3-a39b-92c1bd9dc0e7,"Lager & produktion, salg",2.233 m²,5.400.000 kr.,2.418 kr./m²,55.6392111,12.1208332,Roskilde Kommune
Stenhuggervej 13,6710 Esbjerg V,https://www.ejendomstorvet.dk/koeb/sydjylland/esbjerg/lager-produktion/bce1baa4-2971-4fc2-8548-6ea1be65c07f,"Lager & produktion, salg",2.483 m²,8.795.000 kr.,3.542 kr./m²,55.509074,8.413365,Esbjerg Kommune
Valmuevej 15,9740 Jerslev J,https://www.ejendomstorvet.dk/koeb/nordjylland/broenderslev/lager-produktion/de7cc577-da63-485b-97f9-637550962586,"Lager & produktion, salg",1.511 m²,1.195.000 kr.,790 kr./m²,55.649048,12.60998,Københavns Kommune
Mirabellevej 6-8,8930 Randers NØ,https://www.ejendomstorvet.dk/koeb/oestjylland/randers/lager-produktion/c0d265e0-710f-4a2f-b165-47d7ff4c490a,"Lager & produktion, salg",1.568 m²,5.000.000 kr.,3.188 kr./m²,55.6939407,12.5170354,Københavns Kommune
Sydmarksvej 13/19,5466 Asperup,https://www.ejendomstorvet.dk/koeb/fyn/middelfart/grunde/0cf5488b-867c-44a8-a548-cadad7142945,"Grunde, salg",9.753 m²,1.200.000 kr.,0 kr./m²,55.2897336,10.21087,Assens Kommune
Kvie Søvej 4,6823 Ansager,https://www.ejendomstorvet.dk/koeb/sydjylland/varde/hotel-restaurant/f2d5a56a-3461-4002-b819-a1871953a2c9,"Hotel & restaurant, salg",771 m²,10.499.000 kr.,13.617 kr./m²,55.728442,8.770676,Varde Kommune
Ørstedsvej 36,6760 Ribe,https://www.ejendomstorvet.dk/koeb/sydjylland/esbjerg/lager-produktion/8707e361-77b2-497a-aa4e-537e1c038570,"Lager & produktion, salg",1.643 m²,2.500.000 kr.,1.521 kr./m²,55.354083,8.771829,Esbjerg Kommune
Herningvej 39,8600 Silkeborg,https://www.ejendomstorvet.dk/koeb/oestjylland/silkeborg/grunde/596ee36a-245f-4124-8c69-0b8eca997326,"Grunde, salg",4.048 m²,6.500.000 kr.,20.700 kr./m²,57.026464,9.984731,Aalborg Kommune
Elmegårdsvej 10,8361 Hasselager,https://www.ejendomstorvet.dk/koeb/oestjylland/aarhus/lager-produktion/0d016a54-5724-46f2-8286-d3d1cf1cf89b,"Lager & produktion, salg",914 m²,4.300.000 kr.,4.704 kr./m²,56.111255,10.108864,Aarhus Kommune
Aftensang 20B,6040 Egtved,https://www.ejendomstorvet.dk/koeb/sydjylland/vejle/detailhandel-butik/449416aa-4290-4a95-8321-db20901fe986,"Detailhandel & butik, salg",242 m²,1.295.000 kr.,5.351 kr./m²,55.619716,9.303856,Vejle Kommune
Byggebjerg 4,6534 Agerskov,https://www.ejendomstorvet.dk/koeb/sydjylland/toender/andre-typer/5916e999-10ff-4172-a21f-c0e115641c03,"Andre typer, salg",1.088 m²,795.000 kr.,730 kr./m²,55.13524,9.124119,Tønder Kommune
Kærvej 81,6400 Sønderborg,https://www.ejendomstorvet.dk/koeb/sydjylland/soenderborg/lager-produktion/f41e884a-ed6c-42e8-8012-b442b839be6a,"Lager & produktion, salg",1.277 m²,6.000.000 kr.,4.698 kr./m²,54.927541,9.793836,Sønderborg Kommune
Gadstrup 9,5580 Nørre Aaby,https://www.ejendomstorvet.dk/koeb/fyn/middelfart/lager-produktion/9e5647cf-e14e-42d7-bcbd-c948cdd872db,"Lager & produktion, salg",2.547 m²,2.000.000 kr.,785 kr./m²,55.436588,9.880868,Middelfart Kommune
Smedevænget 15,5550 Langeskov,https://www.ejendomstorvet.dk/koeb/fyn/kerteminde/grunde/1ea34900-e2f7-43ab-af72-75573cc7b825,"Grunde, salg",15.131 m²,6.750.000 kr.,0 kr./m²,55.284325,10.371922,Faaborg-Midtfyn Kommune
Storegade 45,6430 Nordborg,https://www.ejendomstorvet.dk/koeb/sydjylland/soenderborg/andre-typer/9a873489-a840-4f1c-98a8-a096276d3f5f,"Andre typer, salg",368 m²,795.000 kr.,2.160 kr./m²,56.717776,10.115119,Mariagerfjord Kommune
Perimetervejen 79A,3500 Værløse,https://www.ejendomstorvet.dk/koeb/nordsjaelland/furesoe/grunde/7a2abd02-4eff-4c65-8803-d7825cb332fb,"Grunde, salg",11.262 m²,0 kr.,0 kr./m²,55.761696,12.308917,Furesø Kommune
Farverhusvej 14,6261 Bredebro,https://www.ejendomstorvet.dk/koeb/sydjylland/toender/lager-produktion/8c214c11-2242-4941-bf07-fe6233bb0ec5,"Lager & produktion, salg",1.055 m²,1.900.000 kr.,1.800 kr./m²,55.060994,8.823552,Tønder Kommune
Blokken 36,3460 Birkerød,https://www.ejendomstorvet.dk/koeb/nordsjaelland/rudersdal/lager-produktion/b4697bb0-beac-43e6-86f4-873b12c02678,"Lager & produktion, salg",840 m²,4.900.000 kr.,5.833 kr./m²,55.834866,12.402703,Rudersdal Kommune
Ejbyvej 56,4623 Lille Skensved,https://www.ejendomstorvet.dk/koeb/oestsjaelland/koege/lager-produktion/5ec52d2b-b4ac-4784-850f-34a4eeaac166,"Lager & produktion, salg",455 m²,4.995.000 kr.,10.978 kr./m²,55.48913,12.082323,Køge Kommune
"Østergade 43A, st.",4930 Maribo,https://www.ejendomstorvet.dk/koeb/vest-og-sydsjaelland/lolland/hotel-restaurant/ef6426a5-8bfa-4473-8c88-527888b0e157,"Hotel & restaurant, salg",265 m²,1.295.000 kr.,4.886 kr./m²,55.3089119,12.3921028,Stevns Kommune
Klintevej 4,8653 Them,https://www.ejendomstorvet.dk/koeb/oestjylland/silkeborg/lager-produktion/01999a92-56fb-4aab-a88e-97f4cf8964b0,"Lager & produktion, salg",1.751 m²,4.500.000 kr.,2.569 kr./m²,56.198354,10.252386,Aarhus Kommune
Industrivej 26B,6330 Padborg,https://www.ejendomstorvet.dk/koeb/sydjylland/aabenraa/lager-produktion/b321c808-22a8-4b23-b6d7-f557dca00dbc,"Lager & produktion, salg",1.920 m²,12.500.000 kr.,6.510 kr./m²,55.755489,11.955538,Frederikssund Kommune
Gl Hovedgade 10B,2970 Hørsholm,https://www.ejendomstorvet.dk/koeb/nordsjaelland/hoersholm/hotel-restaurant/0c9cd6da-d203-4759-884f-0a7c5c6a2b99,"Hotel & restaurant, salg",82 m²,1.000.000 kr.,12.195 kr./m²,55.877414,12.498167,Hørsholm Kommune
Gødstrupvej 6,7400 Herning,https://www.ejendomstorvet.dk/koeb/vestjylland/herning/andre-typer/70dba6e4-b118-4e35-a22e-9ad457011955,"Andre typer, salg",896 m²,3.995.000 kr.,4.458 kr./m²,56.135144,8.906511,Herning Kommune
Østerlund 2A,9870 Sindal,https://www.ejendomstorvet.dk/koeb/nordjylland/hjoerring/andre-typer/caf577e5-7c3b-42b0-baad-9758699cc204,"Andre typer, salg",268 m²,1.150.000 kr.,4.291 kr./m²,55.838107,12.545483,Rudersdal Kommune
Storegade 5,3770 Allinge,https://www.ejendomstorvet.dk/koeb/bornholm/bornholm/hotel-restaurant/349a076d-ea41-4e04-a2a7-fdc29ba0d102,"Hotel & restaurant, salg",2.123 m²,44.000.000 kr.,20.725 kr./m²,55.643567,12.444396,Hvidovre Kommune
Smedelundsgade 31B,4300 Holbæk,https://www.ejendomstorvet.dk/koeb/vest-og-sydsjaelland/holbaek/andre-typer/5c1e092c-2530-4055-b464-246f91c577c2,"Andre typer, salg",69 m²,1.395.000 kr.,20.217 kr./m²,55.714318,11.716219,Holbæk Kommune
Værkstedsbakken 9,3390 Hundested,https://www.ejendomstorvet.dk/koeb/nordsjaelland/halsnaes/lager-produktion/3b58957c-549c-41d3-8cba-4571e2f36cbc,"Lager & produktion, salg",649 m²,3.500.000 kr.,5.392 kr./m²,55.963218,11.883152,Halsnæs Kommune
Ristingevej 1,5932 Humble,https://www.ejendomstorvet.dk/koeb/fyn/langeland/detailhandel-butik/c6ca51dd-e23f-40e8-a160-c10de60ab2e3,"Detailhandel & butik, salg",350 m²,895.000 kr.,2.557 kr./m²,54.826097,10.6986,Langeland Kommune
Kobbervej 6,6900 Skjern,https://www.ejendomstorvet.dk/koeb/vestjylland/ringkoebing-skjern/lager-produktion/3676736f-d226-4222-8c84-e47aeaadac6e,"Lager & produktion, salg",28.905 m²,85.000.000 kr.,2.940 kr./m²,56.465627,9.970353,Randers Kommune
Parallelvej 2E,8620 Kjellerup,https://www.ejendomstorvet.dk/koeb/oestjylland/silkeborg/detailhandel-butik/502c9385-90f3-46f6-b7b2-f82fcd6414eb,"Detailhandel & butik, salg",501 m²,2.950.000 kr.,5.888 kr./m²,56.285652,9.414913,Silkeborg Kommune
Fredensvej 7,4295 Stenlille,https://www.ejendomstorvet.dk/koeb/vest-og-sydsjaelland/soroe/detailhandel-butik/a8998784-0198-405f-b042-bdb9c7dba61c,"Detailhandel & butik, salg",263 m²,1.895.000 kr.,7.205 kr./m²,55.755123,12.573388,Gentofte Kommune
Fredensvej 7,4295 Stenlille,https://www.ejendomstorvet.dk/koeb/vest-og-sydsjaelland/soroe/lager-produktion/4198d852-7b22-4c16-b90f-7154de399950,"Lager & produktion, salg",263 m²,1.895.000 kr.,7.205 kr./m²,55.755123,12.573388,Gentofte Kommune
Strandvejen 59A,7120 Vejle Øst,https://www.ejendomstorvet.dk/koeb/sydjylland/vejle/detailhandel-butik/74f8075e-d02e-46b5-b850-7e0a4b477527,"Detailhandel & butik, salg",248 m²,2.645.000 kr.,10.665 kr./m²,55.433973,8.364582,Fanø Kommune
Cedervej 5,7400 Herning,https://www.ejendomstorvet.dk/koeb/vestjylland/herning/lager-produktion/ec5cf488-5e27-4ee4-9c92-7e0c828884c6,"Lager & produktion, salg",10.208 m²,33.000.000 kr.,3.232 kr./m²,56.132127,8.930453,Herning Kommune
Søndervang 2,8654 Bryrup,https://www.ejendomstorvet.dk/koeb/oestjylland/silkeborg/lager-produktion/bb9fc099-ff44-4855-ac4d-49826e951496,"Lager & produktion, salg",2.087 m²,2.895.000 kr.,1.387 kr./m²,55.635604,12.082498,Roskilde Kommune
Industrivænget 5,5610 Assens,https://www.ejendomstorvet.dk/koeb/fyn/assens/lager-produktion/cb045193-3776-4947-9690-42af54d87d77,"Lager & produktion, salg",670 m²,1.495.000 kr.,2.231 kr./m²,55.551942,12.1206,Solrød Kommune
St. Voldgade 14,8900 Randers C,https://www.ejendomstorvet.dk/koeb/oestjylland/randers/detailhandel-butik/1d113b2e-9252-4ad7-a8a8-8421bc4cc2c1,"Detailhandel & butik, salg",264 m²,1.750.000 kr.,6.628 kr./m²,56.460333,10.033316,Randers Kommune
Industrivænget 13,8783 Hornsyld,https://www.ejendomstorvet.dk/koeb/oestjylland/hedensted/grunde/1fa55b14-8b70-412e-9cdb-7df129ed6ba8,"Grunde, salg",14.996 m²,1.125.000 kr.,0 kr./m²,55.551278,12.124018,Solrød Kommune
Ålborggade 1,2100 København Ø,https://www.ejendomstorvet.dk/koeb/byen-koebenhavn/koebenhavn/detailhandel-butik/8a2290de-4d3c-4691-862e-2a6fe1fcad0b,"Detailhandel & butik, salg",60 m²,1.050.000 kr.,17.500 kr./m²,55.705546,12.577981,Københavns Kommune
Chr. Xs Vej 12,9990 Skagen,https://www.ejendomstorvet.dk/koeb/nordjylland/frederikshavn/detailhandel-butik/bfc58450-53b4-472a-90ff-60b8f9b72cb7,"Detailhandel & butik, salg",1.299 m²,11.500.000 kr.,8.852 kr./m²,57.723596,10.589014,Frederikshavn Kommune
Scandiasporet 37,8930 Randers NØ,https://www.ejendomstorvet.dk/koeb/oestjylland/randers/andre-typer/636e486d-814d-492b-b7b8-0096247d57d1,"Andre typer, salg",4.224 m²,8.500.000 kr.,2.012 kr./m²,56.466654,10.058901,Randers Kommune
"Århusvej 17, Stilling, 8660 Skanderborg",8660 Skanderborg,https://www.ejendomstorvet.dk/koeb/oestjylland/skanderborg/andre-typer/f93cb1ce-c32d-4bc2-9594-8834518579ea,"Andre typer, salg",316 m²,2.695.000 kr.,8.528 kr./m²,56.061311,9.986382,Skanderborg Kommune
Bybjerggård 3,3060 Espergærde,https://www.ejendomstorvet.dk/koeb/nordsjaelland/helsingoer/andre-typer/0ce1f2c9-5590-465c-a193-fa2804e43e0e,"Andre typer, salg",290 m²,4.550.000 kr.,15.689 kr./m²,55.999956,12.534819,Helsingør Kommune
Industrivej 108,7080 Børkop,https://www.ejendomstorvet.dk/koeb/sydjylland/vejle/grunde/8fdbf65f-b7be-4b05-a7c6-d154bff36dc0,"Grunde, salg",9.517 m²,2.700.000 kr.,283 kr./m²,55.633413,9.678888,Vejle Kommune
Storegade 48,4780 Stege,https://www.ejendomstorvet.dk/koeb/vest-og-sydsjaelland/vordingborg/andre-typer/9457a11a-5c77-4e1e-961b-aeac2d8f1aca,"Andre typer, salg",688 m²,4.495.000 kr.,6.533 kr./m²,55.62246,8.482556,Varde Kommune
Østervold 7,8900 Randers C,https://www.ejendomstorvet.dk/koeb/oestjylland/randers/detailhandel-butik/2388c193-7e03-4e54-a196-bb7ea7b1d3e2,"Detailhandel & butik, salg",368 m²,5.250.000 kr.,14.266 kr./m²,56.462232,10.037547,Randers Kommune
Industri Vest 3,6650 Brørup,https://www.ejendomstorvet.dk/koeb/sydjylland/vejen/lager-produktion/3c5a60b4-d4da-4279-82b3-4668b944b089,"Lager & produktion, salg",394 m²,1.748.000 kr.,4.436 kr./m²,55.48404,9.003618,Vejen Kommune
Kærbækvej 38,6823 Ansager,https://www.ejendomstorvet.dk/koeb/sydjylland/varde/lager-produktion/1428f1fe-afb8-4f18-a470-cea6311ce2f8,"Lager & produktion, salg",811 m²,6.498.000 kr.,8.012 kr./m²,55.728838,8.796993,Varde Kommune
"Rådhusvej 4B, kld.",4550 Asnæs,https://www.ejendomstorvet.dk/koeb/vest-og-sydsjaelland/odsherred/lager-produktion/118a1276-7138-4a89-9464-049ef4f1c5db,"Lager & produktion, salg",100 m²,250.000 kr.,2.500 kr./m²,,,
Nordensvej 5,6330 Padborg,https://www.ejendomstorvet.dk/koeb/sydjylland/aabenraa/grunde/834cbb88-620a-45e1-9f49-c991bc347130,"Grunde, salg",89.029 m²,28.000.000 kr.,0 kr./m²,54.845853,9.343798,Aabenraa Kommune
Gammeldam 11,6200 Aabenraa,https://www.ejendomstorvet.dk/koeb/sydjylland/aabenraa/lager-produktion/c762eebd-2752-471f-aa9d-4c9a5f9c10d3,"Lager & produktion, salg",289 m²,3.995.000 kr.,13.823 kr./m²,55.04612,9.405141,Aabenraa Kommune
Linde Alle 12,4220 Korsør,https://www.ejendomstorvet.dk/koeb/vest-og-sydsjaelland/slagelse/detailhandel-butik/bdd4e7f7-ba28-41b3-8f48-393fbc5d125c,"Detailhandel & butik, salg",215 m²,995.000 kr.,4.627 kr./m²,55.594614,12.669259,Dragør Kommune
Stengårdsvej 13,4340 Tølløse,https://www.ejendomstorvet.dk/koeb/vest-og-sydsjaelland/holbaek/lager-produktion/5c28241d-1508-4f14-adb7-d51f404c284c,"Lager & produktion, salg",1.486 m²,6.250.000 kr.,4.205 kr./m²,55.48097,8.493359,Esbjerg Kommune
Gladsaxe Møllevej 15,2860 Søborg,https://www.ejendomstorvet.dk/koeb/koebenhavns-omegn/gladsaxe/lager-produktion/0d3ad9b1-1088-4e31-8619-7fa26ed90b26,"Lager & produktion, salg",3.629 m²,45.000.000 kr.,12.400 kr./m²,55.732977,12.475995,Gladsaxe Kommune
Fjordvejen 15,6340 Kruså,https://www.ejendomstorvet.dk/koeb/sydjylland/aabenraa/detailhandel-butik/cdf9147e-d4b0-4c8c-abf9-fef77b063b27,"Detailhandel & butik, salg",3.622 m²,21.000.000 kr.,5.797 kr./m²,54.840827,9.447142,Aabenraa Kommune
Nykøbingvej 279,4990 Sakskøbing,https://www.ejendomstorvet.dk/koeb/vest-og-sydsjaelland/guldborgsund/andre-typer/717fded2-ac85-45f6-a6e7-242c8d3b6fb9,"Andre typer, salg",785 m²,1.850.000 kr.,2.356 kr./m²,54.781051,11.711586,Guldborgsund Kommune
Øster Hurupvej 1,9560 Hadsund,https://www.ejendomstorvet.dk/koeb/nordjylland/mariagerfjord/hotel-restaurant/98b33e63-4f5a-48c3-b800-571b12aef850,"Hotel & restaurant, salg",1.049 m²,1.400.000 kr.,1.334 kr./m²,56.755176,10.289688,Mariagerfjord Kommune
Ormhøjgårdvej 1E,8700 Horsens,https://www.ejendomstorvet.dk/koeb/oestjylland/horsens/detailhandel-butik/b35eb740-b34a-4425-b6a0-9ad969c68b83,"Detailhandel & butik, salg",797 m²,6.950.000 kr.,8.720 kr./m²,55.844584,9.836139,Horsens Kommune
Trehøjevej 15,7200 Grindsted,https://www.ejendomstorvet.dk/koeb/sydjylland/billund/lager-produktion/6948b6fc-0681-4614-8ad3-d2b7e560251b,"Lager & produktion, salg",1.078 m²,4.950.000 kr.,4.591 kr./m²,56.187637,8.808391,Herning Kommune
Øllemosevej 4B,4200 Slagelse,https://www.ejendomstorvet.dk/koeb/vest-og-sydsjaelland/slagelse/lager-produktion/5b253835-78b8-4d7f-b862-39294a8954fb,"Lager & produktion, salg",1.397 m²,4.995.000 kr.,3.575 kr./m²,55.309203,11.390613,Slagelse Kommune
Holbækvej 4,4520 Svinninge,https://www.ejendomstorvet.dk/koeb//grunde/5e5a2968-1725-47d3-a90a-839c13901575,"Grunde, salg",80.000 m²,24.000.000 kr.,0 kr./m²,55.634251,12.070104,Roskilde Kommune
Gentoftegade 51,2820 Gentofte,https://www.ejendomstorvet.dk/koeb/koebenhavns-omegn/gentofte/detailhandel-butik/9dc69145-f7ab-42b0-8d43-bb5d750e3bae,"Detailhandel & butik, salg",149 m²,1.595.000 kr.,10.704 kr./m²,55.745861,12.541185,Gentofte Kommune
Hammershøj 29,9460 Brovst,https://www.ejendomstorvet.dk/koeb/nordjylland/jammerbugt/hotel-restaurant/5da90a05-99ca-47d2-9872-745fd90c9e37,"Hotel & restaurant, salg",2.767 m²,14.000.000 kr.,5.059 kr./m²,57.060002,9.595616,Jammerbugt Kommune
Ahornvej 10,4220 Korsør,https://www.ejendomstorvet.dk/koeb/vest-og-sydsjaelland/slagelse/grunde/b2f84bbf-a1a4-447f-99f2-5eb88b24e1c8,"Grunde, salg",16.143 m²,2.950.000 kr.,0 kr./m²,55.573543,12.617911,Dragør Kommune
Egelund 11,6340 Kruså,https://www.ejendomstorvet.dk/koeb/sydjylland/aabenraa/detailhandel-butik/834461a3-e4a3-4bfe-90f0-7794a40943ac,"Detailhandel & butik, salg",3.595 m²,16.000.000 kr.,4.450 kr./m²,55.655724,12.109552,Roskilde Kommune
Egelund 11,6340 Kruså,https://www.ejendomstorvet.dk/koeb/sydjylland/aabenraa/detailhandel-butik/5fe0f021-2975-42b7-9a73-d1ce4381364c,"Detailhandel & butik, salg",3.595 m²,17.300.000 kr.,4.812 kr./m²,55.655724,12.109552,Roskilde Kommune
Præstemarksvej 106,8700 Horsens,https://www.ejendomstorvet.dk/koeb/oestjylland/horsens/andre-typer/d023e0fd-44c2-487d-9b3a-c2dad19c4efc,"Andre typer, salg",1.718 m²,7.995.000 kr.,4.653 kr./m²,55.842035,9.781195,Horsens Kommune
Industrivej 1,6230 Rødekro,https://www.ejendomstorvet.dk/koeb/sydjylland/aabenraa/andre-typer/be7e5aac-0395-473e-94e8-b2872b97b2bc,"Andre typer, salg",1.349 m²,6.995.000 kr.,5.185 kr./m²,55.355359,10.39418,Odense Kommune
Lundsbjerg Industrivej 23,6200 Aabenraa,https://www.ejendomstorvet.dk/koeb/sydjylland/aabenraa/lager-produktion/9a8a7561-f658-41b2-8766-f7d54c923bde,"Lager & produktion, salg",2.153 m²,9.250.000 kr.,4.296 kr./m²,55.004169,9.43769,Aabenraa Kommune
Frederikssundsvej 229,2700 Brønshøj,https://www.ejendomstorvet.dk/koeb/byen-koebenhavn/koebenhavn/detailhandel-butik/d3f705e6-7b68-4bea-b197-4846a5032519,"Detailhandel & butik, salg",60 m²,695.000 kr.,11.583 kr./m²,55.706659,12.487791,Københavns Kommune
Fastrupdalen 36,7400 Herning,https://www.ejendomstorvet.dk/koeb/vestjylland/herning/lager-produktion/183e8f20-35dd-49fa-a051-f9e775f62bfe,"Lager & produktion, salg",3.331 m²,38.500.000 kr.,11.558 kr./m²,56.122121,9.069292,Herning Kommune
Eventyrvej 10,4100 Ringsted,https://www.ejendomstorvet.dk/koeb/vest-og-sydsjaelland/ringsted/grunde/a2955a92-912e-4611-a1c8-60fec8feb22b,"Grunde, salg",1.902 m²,1.250.000 kr.,0 kr./m²,55.458886,11.781082,Ringsted Kommune
Willemoescentret 1,5610 Assens,https://www.ejendomstorvet.dk/koeb/fyn/assens/detailhandel-butik/8d844f57-a73d-4675-9070-4e84b41f05c4,"Detailhandel & butik, salg",981 m²,4.000.000 kr.,4.077 kr./m²,55.269529,9.901177,Assens Kommune
Industrivej 9,7870 Roslev,https://www.ejendomstorvet.dk/koeb/vestjylland/skive/lager-produktion/590c0771-d079-4945-8c98-e8ca8516e470,"Lager & produktion, salg",5.978 m²,6.750.000 kr.,1.129 kr./m²,55.479041,10.246842,Nordfyns Kommune
Teglværksvej 38,4700 Næstved,https://www.ejendomstorvet.dk/koeb/vest-og-sydsjaelland/naestved/andre-typer/746a82d5-89e8-43ed-8764-f05bc7d703ca,"Andre typer, salg",353 m²,4.350.000 kr.,12.322 kr./m²,55.840765,9.229269,Vejle Kommune
Sophus Falcks Vej 6,9300 Sæby,https://www.ejendomstorvet.dk/koeb/nordjylland/frederikshavn/detailhandel-butik/2065402f-807c-47a0-80d6-5ff926ea7d75,"Detailhandel & butik, salg",1.130 m²,6.400.000 kr.,5.663 kr./m²,57.332639,10.504416,Frederikshavn Kommune
Kai Lindbergs Gade 41,7730 Hanstholm,https://www.ejendomstorvet.dk/koeb/nordjylland/thisted/lager-produktion/da643bf0-5154-4fc4-ae44-f682cafb0290,"Lager & produktion, salg",324 m²,1.195.000 kr.,3.688 kr./m²,57.119992,8.602482,Thisted Kommune
Jyllingecentret 15,4040 Jyllinge,https://www.ejendomstorvet.dk/koeb/oestsjaelland/roskilde/detailhandel-butik/9252f9ab-a7ad-4219-bcd9-6fbbaef6efbb,"Detailhandel & butik, salg",216 m²,1.995.000 kr.,9.236 kr./m²,55.750295,12.107765,Roskilde Kommune
Banegårdspladsen 7A,4800 Nykøbing F,https://www.ejendomstorvet.dk/koeb/vest-og-sydsjaelland/guldborgsund/grunde/2b21516e-2cdf-49b4-ba7f-da177e2cc308,"Grunde, salg",713 m²,1.800.000 kr.,0 kr./m²,54.767298,11.875412,Guldborgsund Kommune
Alsgade 33,6400 Sønderborg,https://www.ejendomstorvet.dk/koeb/sydjylland/soenderborg/andre-typer/acc14ebf-7a64-4f73-bcea-ab8017148c03,"Andre typer, salg",3.040 m²,7.000.000 kr.,2.302 kr./m²,54.916432,9.800512,Sønderborg Kommune
Fasanvej 18,3200 Helsinge,https://www.ejendomstorvet.dk/koeb/nordsjaelland/gribskov/lager-produktion/bfc95ec3-9674-41e9-9aaa-efcf63ff333f,"Lager & produktion, salg",1.795 m²,13.500.000 kr.,7.520 kr./m²,56.164288,10.179058,Aarhus Kommune
Gl. Skagensvej 101,9900 Frederikshavn,https://www.ejendomstorvet.dk/koeb/nordjylland/frederikshavn/detailhandel-butik/16f9852d-fe6a-4211-8a1c-7f27abcc01b7,"Detailhandel & butik, salg",996 m²,5.400.000 kr.,5.421 kr./m²,57.454929,10.526405,Frederikshavn Kommune
Løkkevej 40A-D,7620 Lemvig,https://www.ejendomstorvet.dk/koeb/vestjylland/lemvig/andre-typer/48844343-a1b2-4e32-a7fe-7d04ca9bf9c4,"Andre typer, salg",726 m²,7.850.000 kr.,10.812 kr./m²,55.5956426,12.6710551,Dragør Kommune
Bredgade 4,6940 Lem St,https://www.ejendomstorvet.dk/koeb/vestjylland/ringkoebing-skjern/lager-produktion/b1803945-ba6e-4517-a805-46e3a1dc977d,"Lager & produktion, salg",11.994 m²,16.995.000 kr.,1.416 kr./m²,55.681133,12.5878,Københavns Kommune
Østergade 16,7400 Herning,https://www.ejendomstorvet.dk/koeb/vestjylland/herning/detailhandel-butik/a0b1b463-1500-451a-9572-2816851995db,"Detailhandel & butik, salg",430 m²,5.250.000 kr.,12.209 kr./m²,55.680151,12.583829,Københavns Kommune
Smed Hansens Vej 10,6940 Lem St,https://www.ejendomstorvet.dk/koeb/vestjylland/ringkoebing-skjern/lager-produktion/4cae7576-f49c-43e2-9dcf-df31e314f3ea,"Lager & produktion, salg",6.800 m²,12.500.000 kr.,1.838 kr./m²,56.02313,8.386257,Ringkøbing-Skjern Kommune
Forum Kirkevej 26,6715 Esbjerg N,https://www.ejendomstorvet.dk/koeb/sydjylland/esbjerg/lager-produktion/eae656c2-0354-4ff7-83ec-57f5204bc560,"Lager & produktion, salg",1.492 m²,3.995.000 kr.,2.677 kr./m²,55.538188,8.478594,Esbjerg Kommune
Springstrup 15C + 15D,4300 Holbæk,https://www.ejendomstorvet.dk/koeb/vest-og-sydsjaelland/holbaek/lager-produktion/797d01f9-e077-488b-bf34-4774a46a1eef,"Lager & produktion, salg",784 m²,3.250.000 kr.,4.145 kr./m²,55.7037837,11.6612745,Holbæk Kommune
Metalbuen 34,2750 Ballerup,https://www.ejendomstorvet.dk/koeb/koebenhavns-omegn/ballerup/lager-produktion/8fabbd1b-c9f5-4884-8d3b-56f896a61e7e,"Lager & produktion, salg",506 m²,5.500.000 kr.,10.869 kr./m²,55.725327,12.394542,Ballerup Kommune
Apholmenvej 55,9900 Frederikshavn,https://www.ejendomstorvet.dk/koeb/nordjylland/frederikshavn/grunde/cbb8894c-4e98-432a-a21c-6db3cc858d4c,"Grunde, salg",76.846 m²,12.500.000 kr.,0 kr./m²,57.465442,10.527789,Frederikshavn Kommune
Centervej 4,3600 Frederikssund,https://www.ejendomstorvet.dk/koeb/nordsjaelland/frederikssund/lager-produktion/f24019f8-3865-481f-9a19-34fbbfcdd126,"Lager & produktion, salg",794 m²,7.000.000 kr.,8.816 kr./m²,55.521645,9.478414,Kolding Kommune
Nørregade 2,6950 Ringkøbing,https://www.ejendomstorvet.dk/koeb/vestjylland/ringkoebing-skjern/andre-typer/fc80a156-a464-4c03-80bc-8c8e92abf71b,"Andre typer, salg",520 m²,4.700.000 kr.,9.038 kr./m²,55.776632,12.504535,Lyngby-Taarbæk Kommune
Engholmvej 9,3100 Hornbæk,https://www.ejendomstorvet.dk/koeb/nordsjaelland/helsingoer/grunde/612fa5ca-93ac-484f-a879-709de3e017c6,"Grunde, salg",1.534 m²,2.200.000 kr.,0 kr./m²,57.018731,9.885994,Aalborg Kommune
Ørhagevej 150A,7700 Thisted,https://www.ejendomstorvet.dk/koeb/nordjylland/thisted/andre-typer/74208ae7-2178-4ae5-8f3c-4609777b84d8,"Andre typer, salg",794 m²,13.950.000 kr.,17.569 kr./m²,57.043023,8.482186,Thisted Kommune
Fredensgade 22,6000 Kolding,https://www.ejendomstorvet.dk/koeb/sydjylland/kolding/andre-typer/9f1622dd-19bd-41a6-a0a0-9b7dd7852316,"Andre typer, salg",327 m²,3.950.000 kr.,12.079 kr./m²,56.15347,10.208838,Aarhus Kommune
Mandal Alle 3,5500 Middelfart,https://www.ejendomstorvet.dk/koeb/fyn/middelfart/lager-produktion/3aad3ba5-6816-4974-9b55-24cf31852a68,"Lager & produktion, salg",1.548 m²,13.900.000 kr.,8.979 kr./m²,55.501057,9.770391,Middelfart Kommune
Middelfartvej 74,5466 Asperup,https://www.ejendomstorvet.dk/koeb/fyn/middelfart/andre-typer/67da66ad-6f5d-4af7-b16c-35cd721b96d2,"Andre typer, salg",914 m²,1.500.000 kr.,1.641 kr./m²,55.393744,10.353037,Odense Kommune
Borgergade 15B,1300 København K,https://www.ejendomstorvet.dk/koeb/byen-koebenhavn/koebenhavn/detailhandel-butik/048d988d-a6d5-43c4-9c89-2e2049bc6cd1,"Detailhandel & butik, salg",48 m²,260.000 kr.,5.416 kr./m²,55.683753,12.584843,Københavns Kommune
Øster Voldgade 32,1350 København K,https://www.ejendomstorvet.dk/koeb/byen-koebenhavn/koebenhavn/detailhandel-butik/90690e0b-ba64-4c8f-83b9-f813ea661525,"Detailhandel & butik, salg",82 m²,1.600.000 kr.,19.512 kr./m²,55.689738,12.584051,Københavns Kommune
"Amagerbrogade 206B, st",2300 København S,https://www.ejendomstorvet.dk/koeb/byen-koebenhavn/koebenhavn/detailhandel-butik/ce37f46c-1f3e-4ccd-bc83-72edf7a8f713,"Detailhandel & butik, salg",78 m²,1.800.000 kr.,23.076 kr./m²,,,
"Peter Bangs Vej 74, st",2000 Frederiksberg,https://www.ejendomstorvet.dk/koeb/byen-koebenhavn/frederiksberg/detailhandel-butik/dde35d48-8432-4b14-a19e-a887d09711a4,"Detailhandel & butik, salg",139 m²,1.950.000 kr.,14.028 kr./m²,,,
Gyngemose Parkvej 61,2860 Søborg,https://www.ejendomstorvet.dk/koeb/koebenhavns-omegn/gladsaxe/andre-typer/c33d3930-18b3-4abc-9e6b-5b07986224e2,"Andre typer, salg",3.996 m²,29.500.000 kr.,7.382 kr./m²,55.727233,12.478718,Gladsaxe Kommune
"Nørrebrogade 243, kl",2200 København N,https://www.ejendomstorvet.dk/koeb/byen-koebenhavn/koebenhavn/detailhandel-butik/705c2a5b-1eac-46e9-8196-bffb9ecf8215,"Detailhandel & butik, salg",250 m²,3.300.000 kr.,13.200 kr./m²,,,
Kordilgade 81,4400 Kalundborg,https://www.ejendomstorvet.dk/koeb/vest-og-sydsjaelland/kalundborg/detailhandel-butik/613d2e39-3b33-4b15-8b18-9f39ebc3da67,"Detailhandel & butik, salg",2.221 m²,8.300.000 kr.,3.737 kr./m²,55.679876,11.09487,Kalundborg Kommune
Torvet 8,4990 Sakskøbing,https://www.ejendomstorvet.dk/koeb/vest-og-sydsjaelland/guldborgsund/detailhandel-butik/929ea2c0-ebb3-474f-a27a-60833d9f31f0,"Detailhandel & butik, salg",206 m²,995.000 kr.,4.830 kr./m²,55.54834,12.025815,Roskilde Kommune
Sandskærvej 150,6200 Aabenraa,https://www.ejendomstorvet.dk/koeb/sydjylland/aabenraa/andre-typer/8cd8722f-cc4d-42d3-b0fc-68dc1df87145,"Andre typer, salg",552 m²,17.500.000 kr.,31.702 kr./m²,55.108472,9.496466,Aabenraa Kommune
Vesterå 24,9000 Aalborg,https://www.ejendomstorvet.dk/koeb/nordjylland/aalborg/andre-typer/10395923-ce34-4310-9324-797f365ea6ef,"Andre typer, salg",234 m²,2.000.000 kr.,8.547 kr./m²,57.050775,9.918624,Aalborg Kommune
Vesterløkke 38,6091 Bjert,https://www.ejendomstorvet.dk/koeb/sydjylland/kolding/lager-produktion/b4cf414d-46ce-454e-8a1b-1765d971ec59,"Lager & produktion, salg",430 m²,2.295.000 kr.,5.337 kr./m²,55.45339,9.556005,Kolding Kommune
Strandgade 3 og 5,5700 Svendborg,https://www.ejendomstorvet.dk/koeb/fyn/svendborg/hotel-restaurant/ba9cabb7-edc4-4e42-8043-0c6c748cb9aa,"Hotel & restaurant, salg",2.073 m²,23.500.000 kr.,11.336 kr./m²,,,
Industriparken Nord 1,6630 Rødding,https://www.ejendomstorvet.dk/koeb/sydjylland/vejen/lager-produktion/15e62762-305d-4516-8f48-f514de86d079,"Lager & produktion, salg",851 m²,3.450.000 kr.,4.054 kr./m²,55.425561,9.156581,Vejen Kommune
Symfonivej 22,2730 Herlev,https://www.ejendomstorvet.dk/koeb/koebenhavns-omegn/herlev/lager-produktion/0b8d9ba1-652d-4ce1-bc66-4a7af7c88e69,"Lager & produktion, salg",844 m²,9.500.000 kr.,11.255 kr./m²,55.715222,12.448664,Herlev Kommune
Rådhusstræde 3,4970 Rødby,https://www.ejendomstorvet.dk/koeb/vest-og-sydsjaelland/lolland/detailhandel-butik/1e47e5a1-28a8-4826-8c37-d0afef10c074,"Detailhandel & butik, salg",223 m²,495.000 kr.,2.219 kr./m²,55.677063,12.57421,Københavns Kommune
Bredstrupvej 4A,7000 Fredericia,https://www.ejendomstorvet.dk/koeb/sydjylland/fredericia/grunde/20e1da84-7bda-48ae-a30e-1a3922566f52,"Grunde, salg",8.921 m²,4.843.000 kr.,0 kr./m²,55.570401,9.709453,Fredericia Kommune
Industriparken 2B,4960 Holeby,https://www.ejendomstorvet.dk/koeb/vest-og-sydsjaelland/lolland/grunde/b18f57fc-a1c6-4e54-99a8-b59220fbc357,"Grunde, salg",3.424 m²,100.000 kr.,29 kr./m²,54.728529,11.458833,Lolland Kommune
Valhøjs Alle 181 - 183,2610 Rødovre,https://www.ejendomstorvet.dk/koeb/koebenhavns-omegn/roedovre/lager-produktion/4d5c4815-8636-478f-ac40-2b83cd157e25,"Lager & produktion, salg",2.410 m²,21.000.000 kr.,8.713 kr./m²,55.6726768,12.4395111,Rødovre Kommune
Teglvænget 5,7400 Herning,https://www.ejendomstorvet.dk/koeb/vestjylland/herning/detailhandel-butik/53856ec4-b9f0-4464-af33-010d48b9a2d5,"Detailhandel & butik, salg",1.326 m²,6.000.000 kr.,4.524 kr./m²,55.760879,12.590561,Gentofte Kommune
Anderupvej 40A,5270 Odense N,https://www.ejendomstorvet.dk/koeb/fyn/odense/andre-typer/fa4f3880-826c-4d63-b6c5-44ba776a1025,"Andre typer, salg",800 m²,14.000.000 kr.,17.500 kr./m²,55.438393,10.374091,Odense Kommune
Suderholmen 16,8960 Randers SØ,https://www.ejendomstorvet.dk/koeb/oestjylland/randers/lager-produktion/a89ae637-6569-4a1f-9725-9dbb433d88b1,"Lager & produktion, salg",4.070 m²,11.950.000 kr.,2.936 kr./m²,56.453993,10.053358,Randers Kommune
Ejlskovsgade 8,5000 Odense C,https://www.ejendomstorvet.dk/koeb/fyn/odense/detailhandel-butik/28071ebb-c10f-4225-809f-49af5b69a07f,"Detailhandel & butik, salg",730 m²,8.000.000 kr.,10.958 kr./m²,55.4036,10.384844,Odense Kommune
Stenstuegade 4,4200 Slagelse,https://www.ejendomstorvet.dk/koeb/vest-og-sydsjaelland/slagelse/hotel-restaurant/a02f8b99-22b0-4bdf-b494-dde04fb1f9bf,"Hotel & restaurant, salg",135 m²,4.500.000 kr.,33.333 kr./m²,55.403526,11.35315,Slagelse Kommune
Havnegade 41,4970 Rødby,https://www.ejendomstorvet.dk/koeb/vest-og-sydsjaelland/lolland/detailhandel-butik/2db81d88-5d9c-4df6-b98a-7b362da3ced0,"Detailhandel & butik, salg",254 m²,995.000 kr.,3.917 kr./m²,55.677464,12.590683,Københavns Kommune
Buddinge Hovedgade 171B,2860 Søborg,https://www.ejendomstorvet.dk/koeb/koebenhavns-omegn/gladsaxe/lager-produktion/ffaed99d-7e6a-4c14-a2a3-ce94674b30a2,"Lager & produktion, salg",86 m²,1.400.000 kr.,16.279 kr./m²,55.747445,12.479066,Gladsaxe Kommune
Islandsgade 29,4690 Haslev,https://www.ejendomstorvet.dk/koeb/vest-og-sydsjaelland/faxe/lager-produktion/5ccbbc80-0193-4aed-af5d-718c7325bc91,"Lager & produktion, salg",413 m²,3.000.000 kr.,7.263 kr./m²,55.468606,8.444557,Esbjerg Kommune
Godsbanegade 7 ST TH,8700 Horsens,https://www.ejendomstorvet.dk/koeb/oestjylland/horsens/detailhandel-butik/003e6517-7c9a-48f4-ac7a-8ef305bf0bc0,"Detailhandel & butik, salg",160 m²,1.695.000 kr.,10.593 kr./m²,,,
Høegh Guldbergs Gade 9,8700 Horsens,https://www.ejendomstorvet.dk/koeb/oestjylland/horsens/grunde/2ec873b5-a4d8-4c46-905e-37f7155198cb,"Grunde, salg",7.030 m²,20.000.000 kr.,0 kr./m²,55.855568,9.851966,Horsens Kommune
Brabækvænget 6A,5550 Langeskov,https://www.ejendomstorvet.dk/koeb/fyn/kerteminde/hotel-restaurant/ccb479cc-62b8-42a1-aef2-c3e434bfc17a,"Hotel & restaurant, salg",594 m²,3.475.000 kr.,5.850 kr./m²,55.390393,10.597538,Kerteminde Kommune
Ømosevej 4,8643 Ans By,https://www.ejendomstorvet.dk/koeb/oestjylland/silkeborg/grunde/e463f53b-885a-473d-b423-d69304ab6314,"Grunde, salg",90.000 m²,10.800.000 kr.,0 kr./m²,56.032817,12.526031,Helsingør Kommune
Småfolksvej 10,6792 Rømø,https://www.ejendomstorvet.dk/koeb/sydjylland/toender/hotel-restaurant/58a1324e-56db-466c-a311-9fea3477099e,"Hotel & restaurant, salg",2.274 m²,22.500.000 kr.,9.894 kr./m²,55.129779,8.544381,Tønder Kommune
Vesterhavsgade 97,7700 Thisted,https://www.ejendomstorvet.dk/koeb/nordjylland/thisted/detailhandel-butik/1f43a086-8973-4e67-ac7b-e58ff57cb145,"Detailhandel & butik, salg",320 m²,2.195.000 kr.,6.859 kr./m²,55.47227,8.432805,Esbjerg Kommune
Gl. Bjært 16,6091 Bjert,https://www.ejendomstorvet.dk/koeb/sydjylland/kolding/hotel-restaurant/2c21b6ac-50c1-4435-9ca9-22472b91c4e9,"Hotel & restaurant, salg",1.274 m²,5.200.000 kr.,4.081 kr./m²,55.452962,9.559329,Kolding Kommune
Valdemarsgade 49,1665 København V,https://www.ejendomstorvet.dk/koeb/byen-koebenhavn/koebenhavn/detailhandel-butik/0377cb16-d1b0-41b6-bc4b-873e834810c9,"Detailhandel & butik, salg",83 m²,1.650.000 kr.,19.879 kr./m²,55.668568,12.549242,Københavns Kommune
Nygade 25,6690 Gørding,https://www.ejendomstorvet.dk/koeb/sydjylland/esbjerg/lager-produktion/a3c61cf2-e5c7-41d8-ad95-3d0c0dba4d90,"Lager & produktion, salg",3.549 m²,5.900.000 kr.,1.662 kr./m²,55.269559,10.31239,Faaborg-Midtfyn Kommune
Ellegårds Alle 5,8960 Randers SØ,https://www.ejendomstorvet.dk/koeb/oestjylland/randers/lager-produktion/e6cde807-a122-481e-a87c-043ee3631e1b,"Lager & produktion, salg",796 m²,3.500.000 kr.,4.396 kr./m²,56.442975,10.076414,Randers Kommune
Nyvangsvej 4A,4160 Herlufmagle,https://www.ejendomstorvet.dk/koeb/vest-og-sydsjaelland/naestved/lager-produktion/1e4b2d3e-916f-4dac-8edf-6a0aa245bb05,"Lager & produktion, salg",247 m²,2.995.000 kr.,12.125 kr./m²,55.312755,11.74361,Næstved Kommune
Amtsvejen 45A,8981 Spentrup,https://www.ejendomstorvet.dk/koeb/oestjylland/randers/lager-produktion/57335da9-4232-40b9-b039-384f89b05b41,"Lager & produktion, salg",2.004 m²,2.500.000 kr.,1.247 kr./m²,56.577305,9.995968,Randers Kommune
Ryesgade 14,8000 Aarhus C,https://www.ejendomstorvet.dk/koeb/oestjylland/aarhus/detailhandel-butik/15b6b0ec-4eb5-48d7-8347-f4ed1e66c542,"Detailhandel & butik, salg",645 m²,23.000.000 kr.,35.658 kr./m²,56.152197,10.204828,Aarhus Kommune
"Sæby Bakker 7, 8, 9, 10, 11, 12 og 13",9300 Sæby,https://www.ejendomstorvet.dk/koeb/nordjylland/frederikshavn/grunde/c1e9e9db-d631-408f-8040-7c758b9132f9,"Grunde, salg",26.399 m²,24.891.600 kr.,0 kr./m²,,,
Christiansborgvej 16,7560 Hjerm,https://www.ejendomstorvet.dk/koeb/vestjylland/struer/lager-produktion/fbc86066-59c7-406b-ad3a-2cf6d6dba5c4,"Lager & produktion, salg",379 m²,1.650.000 kr.,4.353 kr./m²,56.47357,10.047,Randers Kommune
Nytorv 3B,9000 Aalborg,https://www.ejendomstorvet.dk/koeb/nordjylland/aalborg/andre-typer/0ba464c4-8625-4886-8d2d-619474e5ebf5,"Andre typer, salg",337 m²,6.800.000 kr.,20.178 kr./m²,55.678065,12.573554,Københavns Kommune
Fynsvej 49,5500 Middelfart,https://www.ejendomstorvet.dk/koeb/fyn/middelfart/lager-produktion/90b33a65-5097-4958-baa7-7436cad09c02,"Lager & produktion, salg",707 m²,7.000.000 kr.,9.900 kr./m²,55.661307,12.09958,Roskilde Kommune
Værkstedsvænget 8,4622 Havdrup,https://www.ejendomstorvet.dk/koeb/oestsjaelland/solroed/andre-typer/ab7d5480-d1f1-44a4-873d-ff46074fa9a8,"Andre typer, salg",891 m²,6.200.000 kr.,6.958 kr./m²,55.551132,12.120178,Solrød Kommune
Thyge Hansens Vej 4,5863 Ferritslev Fyn,https://www.ejendomstorvet.dk/koeb/fyn/faaborg-midtfyn/lager-produktion/b2666b68-5d85-4ded-8162-3977b7ab4fd0,"Lager & produktion, salg",830 m²,3.800.000 kr.,4.578 kr./m²,55.309679,10.594906,Faaborg-Midtfyn Kommune
Hammerum Hovedgade 96,7400 Herning,https://www.ejendomstorvet.dk/koeb/vestjylland/herning/andre-typer/4f683c06-cab5-4a5a-979a-ec887e955df1,"Andre typer, salg",270 m²,1.595.000 kr.,5.907 kr./m²,56.132926,9.066834,Herning Kommune
Borupvej 10,3320 Skævinge,https://www.ejendomstorvet.dk/koeb/nordsjaelland/hilleroed/lager-produktion/befe5c2d-4ee0-4d67-b034-982470a0aa04,"Lager & produktion, salg",120 m²,1.095.000 kr.,9.125 kr./m²,57.078103,8.658829,Thisted Kommune
Løven 13,9200 Aalborg SV,https://www.ejendomstorvet.dk/koeb/nordjylland/aalborg/detailhandel-butik/22bb6763-6024-454c-b8fd-6852ab34b228,"Detailhandel & butik, salg",1.355 m²,16.750.000 kr.,12.361 kr./m²,56.488674,9.999004,Randers Kommune
Engboulevarden 18,4800 Nykøbing F,https://www.ejendomstorvet.dk/koeb/vest-og-sydsjaelland/guldborgsund/andre-typer/e964255e-9afd-45f2-9259-dc3303c7e37c,"Andre typer, salg",156 m²,1.395.000 kr.,8.942 kr./m²,56.448633,10.055984,Randers Kommune
Ålbæk Hovedvej 42,6740 Bramming,https://www.ejendomstorvet.dk/koeb/sydjylland/esbjerg/lager-produktion/28e133dc-e604-43e0-8a25-1d158d44d21f,"Lager & produktion, salg",920 m²,2.450.000 kr.,2.663 kr./m²,55.492339,8.627691,Esbjerg Kommune
Søndergade 2,6650 Brørup,https://www.ejendomstorvet.dk/koeb/sydjylland/vejen/andre-typer/eaab752c-ede0-46dc-8d58-84d6178eb8b6,"Andre typer, salg",561 m²,2.600.000 kr.,4.634 kr./m²,56.155632,10.207795,Aarhus Kommune
Asnæs Centret 9C,4550 Asnæs,https://www.ejendomstorvet.dk/koeb/vest-og-sydsjaelland/odsherred/detailhandel-butik/438c652a-4b04-4bee-a340-0c6caae96c08,"Detailhandel & butik, salg",289 m²,2.995.000 kr.,10.363 kr./m²,55.811876,11.500234,Odsherred Kommune
Falkevej 4B,3400 Hillerød,https://www.ejendomstorvet.dk/koeb/nordsjaelland/hilleroed/andre-typer/7e589419-417e-4917-b6c1-36435a0ce31e,"Andre typer, salg",932 m²,8.900.000 kr.,9.549 kr./m²,55.948133,12.260896,Hillerød Kommune
Agertoften 5A,6000 Kolding,https://www.ejendomstorvet.dk/koeb/sydjylland/kolding/grunde/1db59aa0-18d5-4a32-a0a2-96e05c0943a5,"Grunde, salg",5.886 m²,2.000.000 kr.,0 kr./m²,55.498916,9.438224,Kolding Kommune
Gladsaxe Møllevej 19,2860 Søborg,https://www.ejendomstorvet.dk/koeb/koebenhavns-omegn/gladsaxe/andre-typer/e866bc91-aa1c-4b8f-a4ee-405d99afa06a,"Andre typer, salg",3.294 m²,16.170.000 kr.,4.908 kr./m²,55.733965,12.475804,Gladsaxe Kommune
Nørregade 2,7830 Vinderup,https://www.ejendomstorvet.dk/koeb/vestjylland/holstebro/hotel-restaurant/ef3463df-6693-46e7-9b9a-755c7ed30da8,"Hotel & restaurant, salg",2.024 m²,3.995.000 kr.,1.973 kr./m²,55.776632,12.504535,Lyngby-Taarbæk Kommune
Virkelyst 9,6000 Kolding,https://www.ejendomstorvet.dk/koeb/sydjylland/kolding/lager-produktion/c902a671-7e15-48de-bdaa-a4421d9c6a79,"Lager & produktion, salg",1.598 m²,6.100.000 kr.,3.817 kr./m²,57.082406,9.963226,Aalborg Kommune
Gammel Gugvej 51,9000 Aalborg,https://www.ejendomstorvet.dk/koeb/nordjylland/aalborg/andre-typer/4d3f1a70-cdca-4d2e-a490-108ceeea1c02,"Andre typer, salg",53 m²,9.250.000 kr.,174.528 kr./m²,57.028037,9.928134,Aalborg Kommune
Svinget 2-4,7300 Jelling,https://www.ejendomstorvet.dk/koeb/sydjylland/vejle/andre-typer/41663c33-5c4b-450b-946a-2616d59ca9da,"Andre typer, salg",1.424 m²,4.600.000 kr.,3.230 kr./m²,55.6652982,12.596299,Københavns Kommune
Oldenvej 19B,3490 Kvistgård,https://www.ejendomstorvet.dk/koeb/nordsjaelland/helsingoer/lager-produktion/e9d09064-3fa7-4a7f-ac0e-4c5acdea6c65,"Lager & produktion, salg",499 m²,5.500.000 kr.,11.022 kr./m²,55.994013,12.497161,Helsingør Kommune
Oldenvej 19C,3490 Kvistgård,https://www.ejendomstorvet.dk/koeb/nordsjaelland/helsingoer/lager-produktion/d833cd67-2a8d-4be7-a579-c355dcc26c22,"Lager & produktion, salg",451 m²,4.750.000 kr.,10.532 kr./m²,55.994182,12.497332,Helsingør Kommune
Borup Alle 1,8920 Randers NV,https://www.ejendomstorvet.dk/koeb/oestjylland/randers/andre-typer/fd56e33e-ad3e-4589-bde9-bfa4387244bc,"Andre typer, salg",695 m²,5.000.000 kr.,7.194 kr./m²,56.480677,10.00019,Randers Kommune
Havnevej 3,6320 Egernsund,https://www.ejendomstorvet.dk/koeb/sydjylland/soenderborg/andre-typer/707f35e0-ca07-4f29-b345-a58d2f0cd0bb,"Andre typer, salg",869 m²,6.000.000 kr.,6.904 kr./m²,55.645696,12.076333,Roskilde Kommune
Jyllingecentret 23,4040 Jyllinge,https://www.ejendomstorvet.dk/koeb/oestsjaelland/roskilde/detailhandel-butik/0294e5f2-21be-4e3b-8c49-1ab604746f37,"Detailhandel & butik, salg",464 m²,2.650.000 kr.,5.711 kr./m²,55.750259,12.108208,Roskilde Kommune
Kirkevej 15,5464 Brenderup Fyn,https://www.ejendomstorvet.dk/koeb/fyn/middelfart/detailhandel-butik/fad8531f-acbb-490b-9286-d46da71b386f,"Detailhandel & butik, salg",8.794 m²,14.500.000 kr.,1.648 kr./m²,55.315332,10.317084,Odense Kommune
Kærbyvej 65,8983 Gjerlev J,https://www.ejendomstorvet.dk/koeb/oestjylland/randers/andre-typer/36b41bec-f4fa-4368-b474-09f1b710c9e6,"Andre typer, salg",705 m²,2.000.000 kr.,2.836 kr./m²,55.697628,12.45617,Rødovre Kommune
Østergade 2,6823 Ansager,https://www.ejendomstorvet.dk/koeb/sydjylland/varde/detailhandel-butik/f297d0a8-99e9-4d0f-861e-db94b5c2b914,"Detailhandel & butik, salg",457 m²,800.000 kr.,1.750 kr./m²,56.154497,10.204363,Aarhus Kommune
Åsebro 28,3300 Frederiksværk,https://www.ejendomstorvet.dk/koeb/nordsjaelland/halsnaes/andre-typer/d87bfd44-ae07-45eb-9485-06c2194a9f05,"Andre typer, salg",1.281 m²,10.000.000 kr.,7.806 kr./m²,55.979682,12.014448,Halsnæs Kommune
Apotekergade 2,4840 Nørre Alslev,https://www.ejendomstorvet.dk/koeb/vest-og-sydsjaelland/guldborgsund/detailhandel-butik/5bf33cde-843b-4832-880d-d6895d2998f7,"Detailhandel & butik, salg",652 m²,3.250.000 kr.,4.984 kr./m²,54.899159,11.877809,Guldborgsund Kommune
Støberivej 7,3660 Stenløse,https://www.ejendomstorvet.dk/koeb/nordsjaelland/egedal/lager-produktion/2ec2f9b3-b474-42ba-b97c-b279a0803c97,"Lager & produktion, salg",458 m²,3.950.000 kr.,8.624 kr./m²,56.021202,12.561075,Helsingør Kommune
"Brunde Øst 2, 6 & 8",6230 Rødekro,https://www.ejendomstorvet.dk/koeb/sydjylland/aabenraa/detailhandel-butik/5ee0edfd-c79b-4862-96c7-dbeebc2a9480,"Detailhandel & butik, salg",783 m²,6.500.000 kr.,8.301 kr./m²,,,
Peder Skramsvej 4,9850 Hirtshals,https://www.ejendomstorvet.dk/koeb/nordjylland/hjoerring/lager-produktion/8bc2e584-cf7f-4165-b931-b55f87546014,"Lager & produktion, salg",3.880 m²,7.500.000 kr.,1.932 kr./m²,57.590556,9.979423,Hjørring Kommune
Marsalle 23,8700 Horsens,https://www.ejendomstorvet.dk/koeb/oestjylland/horsens/lager-produktion/eca6811b-686a-41e2-8c3a-47d22e4602ce,"Lager & produktion, salg",1.800 m²,11.000.000 kr.,6.111 kr./m²,55.836027,9.799814,Horsens Kommune
Kulsviervej 23,3400 Hillerød,https://www.ejendomstorvet.dk/koeb/nordsjaelland/hilleroed/lager-produktion/c63db7de-de0c-42db-b801-7abc39a186d5,"Lager & produktion, salg",479 m²,5.750.000 kr.,12.004 kr./m²,55.938687,12.35817,Hillerød Kommune
Orehoved Langgade 49,4840 Nørre Alslev,https://www.ejendomstorvet.dk/koeb/vest-og-sydsjaelland/guldborgsund/andre-typer/cf78a874-87be-4ac4-b0f4-1a9b4eb6aff0,"Andre typer, salg",396 m²,1.195.000 kr.,3.017 kr./m²,54.946752,11.861304,Guldborgsund Kommune
Skanderborgvej 186,8382 Hinnerup,https://www.ejendomstorvet.dk/koeb/oestjylland/favrskov/grunde/447c0497-329a-462e-a0f8-806347c87f9f,"Grunde, salg",10.204 m²,6.000.000 kr.,17.492 kr./m²,56.251354,10.03092,Favrskov Kommune
Skansevej 1,8000 Aarhus C,https://www.ejendomstorvet.dk/koeb/oestjylland/aarhus/lager-produktion/b9c63aec-ba26-4a0f-b1b1-669ed1bb79b8,"Lager & produktion, salg",11.166 m²,60.000.000 kr.,5.373 kr./m²,55.60614,12.666262,Dragør Kommune
Betonvej 9,4000 Roskilde,https://www.ejendomstorvet.dk/koeb/oestsjaelland/roskilde/lager-produktion/1165a260-73a2-4cee-8a16-a3ecb85604ba,"Lager & produktion, salg",996 m²,14.000.000 kr.,14.056 kr./m²,55.645308,12.124335,Roskilde Kommune
Maigårdsvej 4,9900 Frederikshavn,https://www.ejendomstorvet.dk/koeb/nordjylland/frederikshavn/lager-produktion/0e67d3e1-9abc-4e69-aa24-9bb95ef7a4a2,"Lager & produktion, salg",1.007 m²,5.000.000 kr.,4.965 kr./m²,57.447042,10.50238,Frederikshavn Kommune
Hjørringvej 525A,9800 Hjørring,https://www.ejendomstorvet.dk/koeb/nordjylland/hjoerring/andre-typer/7701c9f6-2421-4ef2-a8bd-e958d2bfdffa,"Andre typer, salg",391 m²,1.800.000 kr.,4.603 kr./m²,57.455014,10.115071,Hjørring Kommune
Egholmvej 3A,9800 Hjørring,https://www.ejendomstorvet.dk/koeb/nordjylland/hjoerring/lager-produktion/7dbf72a9-b008-4e3e-9e27-5e308e784587,"Lager & produktion, salg",492 m²,2.400.000 kr.,4.878 kr./m²,57.453038,10.024064,Hjørring Kommune
Niels Juelsvej 10,9850 Hirtshals,https://www.ejendomstorvet.dk/koeb/nordjylland/hjoerring/lager-produktion/67ffa398-b79f-4430-8b7e-75e738bcf084,"Lager & produktion, salg",1.225 m²,2.500.000 kr.,2.040 kr./m²,57.589395,9.978141,Hjørring Kommune
Hermesvej 6,6330 Padborg,https://www.ejendomstorvet.dk/koeb/sydjylland/aabenraa/lager-produktion/5e3d8986-425c-4fcc-bada-fbb60472321f,"Lager & produktion, salg",5.150 m²,15.500.000 kr.,3.009 kr./m²,55.721061,9.510074,Vejle Kommune
Hermesvej 2A,6330 Padborg,https://www.ejendomstorvet.dk/koeb/sydjylland/aabenraa/lager-produktion/708a2b68-eaf4-44d2-9b6f-8ba4f2ac87a1,"Lager & produktion, salg",4.034 m²,11.500.000 kr.,2.850 kr./m²,54.831967,9.340136,Aabenraa Kommune
Hedelundvej 13,6705 Esbjerg Ø,https://www.ejendomstorvet.dk/koeb/sydjylland/esbjerg/lager-produktion/17e9f268-b1cd-4d34-9c69-ba693ec9d72d,"Lager & produktion, salg",25.367 m²,145.000.000 kr.,5.716 kr./m²,55.439583,10.400221,Odense Kommune
Møgelmosevej 54,6630 Rødding,https://www.ejendomstorvet.dk/koeb/sydjylland/vejen/lager-produktion/c767c988-0e0b-4921-b84e-c10ee02f3bb8,"Lager & produktion, salg",567 m²,1.500.000 kr.,2.645 kr./m²,55.37264,9.047865,Vejen Kommune
Tolderlundsvej 115,5000 Odense C,https://www.ejendomstorvet.dk/koeb/fyn/odense/lager-produktion/b968a3c5-3a68-4abc-a889-fcfe4d8f9d46,"Lager & produktion, salg",10.510 m²,8.500.000 kr.,808 kr./m²,55.417004,10.383226,Odense Kommune
Bjødstrupvej 20D,8270 Højbjerg,https://www.ejendomstorvet.dk/koeb/oestjylland/aarhus/grunde/ccf3f034-7fa8-4008-b341-66934d8ec890,"Grunde, salg",1.516 m²,4.375.000 kr.,0 kr./m²,56.107793,10.166202,Aarhus Kommune
Karen Blixens Vej 4,7100 Vejle,https://www.ejendomstorvet.dk/koeb/sydjylland/vejle/lager-produktion/61326729-774a-4ed1-af49-6c8e25e33384,"Lager & produktion, salg",2.053 m²,11.500.000 kr.,5.601 kr./m²,57.013752,9.890706,Aalborg Kommune
Kystvejen 4,6100 Haderslev,https://www.ejendomstorvet.dk/koeb/sydjylland/haderslev/lager-produktion/42b83c93-958b-460f-b329-de1f46e607c3,"Lager & produktion, salg",5.988 m²,4.950.000 kr.,826 kr./m²,55.434791,8.363565,Fanø Kommune
Nydamsvej 12B,8362 Hørning,https://www.ejendomstorvet.dk/koeb/oestjylland/skanderborg/lager-produktion/b877878d-e04b-4003-9489-573778fda12b,"Lager & produktion, salg",754 m²,4.500.000 kr.,5.968 kr./m²,56.085234,10.042079,Skanderborg Kommune
Sct. Laurentii Vej 82A,9990 Skagen,https://www.ejendomstorvet.dk/koeb/nordjylland/frederikshavn/andre-typer/45b9fac4-9c3c-4267-927a-cde41470a54b,"Andre typer, salg",952 m²,9.500.000 kr.,9.978 kr./m²,57.719976,10.583963,Frederikshavn Kommune
Øresundsvej 11,6715 Esbjerg N,https://www.ejendomstorvet.dk/koeb/sydjylland/esbjerg/lager-produktion/142452d6-9cb0-4a94-b0b2-2479152b3504,"Lager & produktion, salg",1.337 m²,3.950.000 kr.,2.954 kr./m²,55.658622,12.608974,Københavns Kommune
Hollændervej 28,1855 Frederiksberg C,https://www.ejendomstorvet.dk/koeb/byen-koebenhavn/frederiksberg/lager-produktion/b5877d91-7d8d-4303-90ce-b39258d96d00,"Lager & produktion, salg",423 m²,995.000 kr.,2.352 kr./m²,55.597086,12.665672,Dragør Kommune
Hjørringvej 430A,9750 Østervrå,https://www.ejendomstorvet.dk/koeb/nordjylland/frederikshavn/andre-typer/c9258b7e-3b70-4d1a-a299-a2571e7b4904,"Andre typer, salg",232 m²,745.000 kr.,3.211 kr./m²,57.342064,10.237814,Frederikshavn Kommune
Helsingevej 30A,3300 Frederiksværk,https://www.ejendomstorvet.dk/koeb/nordsjaelland/halsnaes/andre-typer/083a9272-c987-40f7-9bb3-59e4560139d2,"Andre typer, salg",222 m²,2.350.000 kr.,10.585 kr./m²,55.985946,12.0324,Halsnæs Kommune
Platinvej 20,6000 Kolding,https://www.ejendomstorvet.dk/koeb/sydjylland/kolding/lager-produktion/c04d363e-4e12-4356-b4d2-5c9c418fa4be,"Lager & produktion, salg",1.040 m²,5.198.000 kr.,4.998 kr./m²,55.50812,9.434373,Kolding Kommune
Haderslevvej 140,6000 Kolding,https://www.ejendomstorvet.dk/koeb/sydjylland/kolding/andre-typer/f9c7a9cf-4142-4039-a22a-584fe0717c83,"Andre typer, salg",262 m²,3.300.000 kr.,12.595 kr./m²,55.473964,9.469731,Kolding Kommune
Havnevej 3,4300 Holbæk,https://www.ejendomstorvet.dk/koeb/vest-og-sydsjaelland/holbaek/hotel-restaurant/abb626c9-4b88-439a-8dce-b6482ddf5614,"Hotel & restaurant, salg",243 m²,20.000.000 kr.,82.304 kr./m²,55.645696,12.076333,Roskilde Kommune
Håndværkervangen 6,4550 Asnæs,https://www.ejendomstorvet.dk/koeb/vest-og-sydsjaelland/odsherred/grunde/49d4384c-0b3b-4b56-93c6-2e1a70c321fc,"Grunde, salg",6.950 m²,895.000 kr.,0 kr./m²,55.303735,10.467849,Faaborg-Midtfyn Kommune
Fuglegårdsvænget 96,2820 Gentofte,https://www.ejendomstorvet.dk/koeb/koebenhavns-omegn/gentofte/lager-produktion/7a431238-d3d7-448a-bc65-f8f47c46efc7,"Lager & produktion, salg",224 m²,1.360.000 kr.,6.071 kr./m²,55.74134,12.524128,Gentofte Kommune
Amagerbrogade 32,2300 København S,https://www.ejendomstorvet.dk/koeb/byen-koebenhavn/koebenhavn/detailhandel-butik/06970c0a-3f2e-4987-8079-d020a11a7022,"Detailhandel & butik, salg",288 m²,3.995.000 kr.,13.871 kr./m²,55.664466,12.600132,Københavns Kommune
Bødkervej 2,4660 Store Heddinge,https://www.ejendomstorvet.dk/koeb/vest-og-sydsjaelland/stevns/lager-produktion/d653e55a-37a5-44b8-85ea-6acd957c6489,"Lager & produktion, salg",612 m²,2.800.000 kr.,4.575 kr./m²,56.191534,9.022897,Herning Kommune
Bredgade 102,7760 Hurup Thy,https://www.ejendomstorvet.dk/koeb/nordjylland/thisted/detailhandel-butik/d50a1461-b828-4303-b3fb-432bf1e4512c,"Detailhandel & butik, salg",839 m²,1.000.000 kr.,1.191 kr./m²,55.383174,10.103728,Assens Kommune
Bilstrupvej 101,7800 Skive,https://www.ejendomstorvet.dk/koeb/vestjylland/skive/grunde/ad183292-258e-4aee-90e8-47f29d77e696,"Grunde, salg",53.556 m²,8.750.000 kr.,163 kr./m²,56.54615,9.012064,Skive Kommune
Skanderborgvej 244,8260 Viby J,https://www.ejendomstorvet.dk/koeb/oestjylland/aarhus/lager-produktion/bc9a4291-ceab-416e-b748-492976749c0e,"Lager & produktion, salg",2.585 m²,19.500.000 kr.,7.543 kr./m²,56.117641,10.133838,Aarhus Kommune
Finlandsvej 5,8700 Horsens,https://www.ejendomstorvet.dk/koeb/oestjylland/horsens/lager-produktion/d176207c-2423-407c-b6b9-d50e652ecd59,"Lager & produktion, salg",1.158 m²,6.200.000 kr.,5.354 kr./m²,55.792328,12.516478,Lyngby-Taarbæk Kommune
Østergade 4,5471 Søndersø,https://www.ejendomstorvet.dk/koeb/fyn/nordfyns/lager-produktion/1c06de6b-cf87-4231-a532-55ba46a78848,"Lager & produktion, salg",120 m²,600.000 kr.,5.000 kr./m²,55.680301,12.584575,Københavns Kommune
Frk. Jensens Gård 3,8900 Randers C,https://www.ejendomstorvet.dk/koeb/oestjylland/randers/andre-typer/462381d0-0b31-485f-a485-a867adfd091e,"Andre typer, salg",1.108 m²,3.200.000 kr.,2.888 kr./m²,56.461215,10.040482,Randers Kommune
Erhvervsparken 57,8882 Fårvang,https://www.ejendomstorvet.dk/koeb/oestjylland/silkeborg/lager-produktion/638474a7-e6c5-4529-8907-0fc1732d90e0,"Lager & produktion, salg",3.119 m²,9.850.000 kr.,3.158 kr./m²,56.270579,9.720057,Silkeborg Kommune
Strandstræde 17A,3550 Slangerup,https://www.ejendomstorvet.dk/koeb/nordsjaelland/frederikssund/grunde/bc5ab007-0204-4284-a2b1-295e281ebf79,"Grunde, salg",58.428 m²,0 kr.,0 kr./m²,55.847643,12.154345,Frederikssund Kommune
"Gl Færgevej 107, st",6300 Gråsten,https://www.ejendomstorvet.dk/koeb/sydjylland/soenderborg/andre-typer/1b9dfad9-7f17-455e-a685-3f2e8a8896d8,"Andre typer, salg",181 m²,1.795.000 kr.,9.917 kr./m²,,,
Mikkelborg Bygade 7,6630 Rødding,https://www.ejendomstorvet.dk/koeb/sydjylland/vejen/hotel-restaurant/a14a3b80-9d7d-4f9f-b7c4-162ffa5d033d,"Hotel & restaurant, salg",1.817 m²,1.495.000 kr.,822 kr./m²,55.387032,9.155215,Vejen Kommune
Transportbuen 3M,4700 Næstved,https://www.ejendomstorvet.dk/koeb/vest-og-sydsjaelland/naestved/lager-produktion/c400eefc-1a73-453c-b316-70ee15c93776,"Lager & produktion, salg",956 m²,8.000.000 kr.,8.368 kr./m²,55.252571,11.791043,Næstved Kommune
Enghavevej 71,1674 København V,https://www.ejendomstorvet.dk/koeb/byen-koebenhavn/koebenhavn/hotel-restaurant/782db0ff-710f-46fe-bc7f-d024224d3b15,"Hotel & restaurant, salg",70 m²,2.500.000 kr.,35.714 kr./m²,55.664154,12.542628,Københavns Kommune
Axel Kiers Vej 22,8270 Højbjerg,https://www.ejendomstorvet.dk/koeb/oestjylland/aarhus/grunde/9e77ea30-4a98-4a2d-9577-de484baf2cfe,"Grunde, salg",3.300 m²,4.000.000 kr.,0 kr./m²,56.107257,10.163938,Aarhus Kommune
Risagervej 5A,6690 Gørding,https://www.ejendomstorvet.dk/koeb/sydjylland/esbjerg/andre-typer/d3106ced-3e0b-4081-88ca-94b3b980e993,"Andre typer, salg",407 m²,3.098.000 kr.,7.611 kr./m²,55.477624,8.792493,Esbjerg Kommune
Ringstedvej 48A,4180 Sorø,https://www.ejendomstorvet.dk/koeb/vest-og-sydsjaelland/soroe/lager-produktion/49fcd53f-c34f-4387-a1c8-dce7005fa0e2,"Lager & produktion, salg",5.112 m²,8.500.000 kr.,1.662 kr./m²,55.641527,11.514216,Holbæk Kommune
Vestergade 10B-C,7400 Herning,https://www.ejendomstorvet.dk/koeb/vestjylland/herning/detailhandel-butik/0d419161-28fe-47b5-acc0-13ae2b811974,"Detailhandel & butik, salg",969 m²,5.495.000 kr.,5.670 kr./m²,55.6771219,12.5692686,Københavns Kommune
Energivej 12,2750 Ballerup,https://www.ejendomstorvet.dk/koeb/koebenhavns-omegn/ballerup/lager-produktion/0bdf0f06-2cdc-4c0d-85d3-0e02c1cea4a0,"Lager & produktion, salg",1.631 m²,20.000.000 kr.,12.262 kr./m²,56.228664,10.159068,Aarhus Kommune
Vorgodvej 1A,6920 Videbæk,https://www.ejendomstorvet.dk/koeb/vestjylland/ringkoebing-skjern/grunde/f32c677d-18ee-4802-a12b-1ab4285ef6d0,"Grunde, salg",2.464 m²,700.000 kr.,0 kr./m²,56.099679,8.702236,Ringkøbing-Skjern Kommune
Højby Hovedgade 28,4573 Højby,https://www.ejendomstorvet.dk/koeb/vest-og-sydsjaelland/odsherred/hotel-restaurant/d3961cf4-b2ad-430b-85df-08dcf9441f24,"Hotel & restaurant, salg",926 m²,2.895.000 kr.,3.126 kr./m²,55.911728,11.604662,Odsherred Kommune
Præstevænget 40,7400 Herning,https://www.ejendomstorvet.dk/koeb/vestjylland/herning/andre-typer/851f6530-f0c3-459b-a166-da57b3bfa6e9,"Andre typer, salg",998 m²,3.950.000 kr.,3.957 kr./m²,55.939975,9.953455,Horsens Kommune
Tilst Søndervej 3,8381 Tilst,https://www.ejendomstorvet.dk/koeb/oestjylland/aarhus/detailhandel-butik/c84d2530-635f-43e0-bc3d-c317b8060d2a,"Detailhandel & butik, salg",11.565 m²,86.500.000 kr.,7.479 kr./m²,56.182209,10.119145,Aarhus Kommune
Nørre Skærbækvej 6,6780 Skærbæk,https://www.ejendomstorvet.dk/koeb/sydjylland/toender/detailhandel-butik/e53588c6-43e3-40ea-ab82-517b6c7dba28,"Detailhandel & butik, salg",649 m²,2.450.000 kr.,3.775 kr./m²,55.159431,8.761279,Tønder Kommune
Okslundvej 1,6330 Padborg,https://www.ejendomstorvet.dk/koeb/sydjylland/aabenraa/andre-typer/77f74a24-30d3-4a7a-aef2-af84a4663790,"Andre typer, salg",624 m²,2.950.000 kr.,4.727 kr./m²,54.832571,9.362393,Aabenraa Kommune
Hestkærvej 4,9800 Hjørring,https://www.ejendomstorvet.dk/koeb/nordjylland/hjoerring/andre-typer/36098132-f0a7-4f86-aacd-09485b2fe1c5,"Andre typer, salg",967 m²,4.950.000 kr.,5.118 kr./m²,57.456904,10.012025,Hjørring Kommune
Lillehøjvej 11,8600 Silkeborg,https://www.ejendomstorvet.dk/koeb/oestjylland/silkeborg/grunde/791222ad-f3e5-4491-924e-9ea2509f0013,"Grunde, salg",11.246 m²,9.500.000 kr.,0 kr./m²,56.188272,9.571146,Silkeborg Kommune
Ved Stranden 19,9000 Aalborg,https://www.ejendomstorvet.dk/koeb/nordjylland/aalborg/detailhandel-butik/19e3ae85-40b3-4e06-9db6-b8852cb6279c,"Detailhandel & butik, salg",58 m²,2.650.000 kr.,45.689 kr./m²,55.677585,12.580486,Københavns Kommune
Danmarksgade 66,9000 Aalborg,https://www.ejendomstorvet.dk/koeb/nordjylland/aalborg/detailhandel-butik/caad1059-f49a-4d6b-a9c2-0963a680ec19,"Detailhandel & butik, salg",110 m²,1.650.000 kr.,15.000 kr./m²,57.045056,9.922972,Aalborg Kommune
Nørretorv 2G,7100 Vejle,https://www.ejendomstorvet.dk/koeb/sydjylland/vejle/detailhandel-butik/199ecb61-63bf-4a05-8b22-2cbd703cce29,"Detailhandel & butik, salg",248 m²,2.800.000 kr.,11.290 kr./m²,55.711086,9.536932,Vejle Kommune
Strevelinsvej 17,7000 Fredericia,https://www.ejendomstorvet.dk/koeb/sydjylland/fredericia/grunde/c34b9740-7cbf-4f32-b0e4-0dd1adcf6aef,"Grunde, salg",7.686 m²,11.500.000 kr.,8.846 kr./m²,55.53424,9.718342,Fredericia Kommune
Rørvangsvej 33A,4300 Holbæk,https://www.ejendomstorvet.dk/koeb/vest-og-sydsjaelland/holbaek/grunde/995705d6-fd50-4eb2-b719-51154ded153f,"Grunde, salg",7.035 m²,4.500.000 kr.,0 kr./m²,55.689375,11.705692,Holbæk Kommune
Snaremosevej 8,7000 Fredericia,https://www.ejendomstorvet.dk/koeb/sydjylland/fredericia/grunde/e4602c7f-5a76-4171-b188-7ca4af0f91e3,"Grunde, salg",0 m²,1.550.000 kr.,0 kr./m²,54.893404,10.760036,Langeland Kommune
Vestergade 40B,5700 Svendborg,https://www.ejendomstorvet.dk/koeb/fyn/svendborg/lager-produktion/48d18bad-722e-4509-bbf5-4f3c937edf48,"Lager & produktion, salg",332 m²,1.200.000 kr.,3.614 kr./m²,55.804176,9.695968,Hedensted Kommune
Bjælkerupvej 112,4660 Store Heddinge,https://www.ejendomstorvet.dk/koeb/vest-og-sydsjaelland/stevns/grunde/81aa6d97-6307-4dd1-a988-948a0b2cd78a,"Grunde, salg",4.771 m²,1.995.000 kr.,0 kr./m²,55.321765,12.371412,Stevns Kommune
Undalsvej 2,3300 Frederiksværk,https://www.ejendomstorvet.dk/koeb/nordsjaelland/halsnaes/detailhandel-butik/0840fbbe-468b-4af6-bfc8-ceeb4858bc8e,"Detailhandel & butik, salg",960 m²,6.900.000 kr.,7.187 kr./m²,55.948628,12.034154,Halsnæs Kommune
P.O. Pedersens Vej 9,8200 Aarhus N,https://www.ejendomstorvet.dk/koeb/oestjylland/aarhus/lager-produktion/68dbcbfd-69ec-4431-a906-96a56d001dbd,"Lager & produktion, salg",2.722 m²,15.995.000 kr.,5.876 kr./m²,56.204675,10.188277,Aarhus Kommune
Kronborggade 1,2200 København N,https://www.ejendomstorvet.dk/koeb/byen-koebenhavn/koebenhavn/detailhandel-butik/5e2de940-258b-42b6-a3ae-f84aacf61bfb,"Detailhandel & butik, salg",74 m²,1.375.000 kr.,18.581 kr./m²,55.69122,12.544842,Københavns Kommune
Fabriksvej 8,6920 Videbæk,https://www.ejendomstorvet.dk/koeb/vestjylland/ringkoebing-skjern/lager-produktion/62bebbf8-8107-4d9e-987c-9fe7c592c299,"Lager & produktion, salg",2.084 m²,5.800.000 kr.,2.783 kr./m²,55.34761,10.403543,Odense Kommune
D Lauritzens Vej 4,6700 Esbjerg,https://www.ejendomstorvet.dk/koeb/sydjylland/esbjerg/lager-produktion/90c944cd-a076-40c6-8a3e-530d05b94a1a,"Lager & produktion, salg",744 m²,1.900.000 kr.,2.553 kr./m²,55.46614,8.438885,Esbjerg Kommune
Industrivej 2,5492 Vissenbjerg,https://www.ejendomstorvet.dk/koeb/fyn/assens/andre-typer/5d1d1286-4163-400b-a186-b0ee2cc045a8,"Andre typer, salg",584 m²,3.795.000 kr.,6.498 kr./m²,55.355799,10.394623,Odense Kommune
Brænderisvej 22A,4873 Væggerløse,https://www.ejendomstorvet.dk/koeb/vest-og-sydsjaelland/guldborgsund/andre-typer/21c705bb-ac85-4c45-abc2-b87c087892f8,"Andre typer, salg",1.244 m²,3.995.000 kr.,3.211 kr./m²,54.701083,11.93235,Guldborgsund Kommune
Bonderupvej 99,4350 Ugerløse,https://www.ejendomstorvet.dk/koeb/vest-og-sydsjaelland/holbaek/andre-typer/b95b5b8b-e9f7-42b2-9e21-2f03abb3862c,"Andre typer, salg",2.330 m²,7.495.000 kr.,3.216 kr./m²,55.578033,11.68327,Holbæk Kommune
"Reverdilsgade 6, kl",1701 København V,https://www.ejendomstorvet.dk/koeb/byen-koebenhavn/koebenhavn/detailhandel-butik/280df9c6-dde2-4ac0-bb48-d505b9431c58,"Detailhandel & butik, salg",185 m²,2.700.000 kr.,14.594 kr./m²,,,
Rørvigvej 225,4500 Nykøbing Sj,https://www.ejendomstorvet.dk/koeb/vest-og-sydsjaelland/odsherred/hotel-restaurant/20643070-83c0-406f-9aef-27ff5bab3f91,"Hotel & restaurant, salg",227 m²,2.495.000 kr.,10.991 kr./m²,55.938069,11.706485,Odsherred Kommune
Damgade 97,6400 Sønderborg,https://www.ejendomstorvet.dk/koeb/sydjylland/soenderborg/lager-produktion/3cc9a39f-ce7b-465d-be65-46ebf65a1619,"Lager & produktion, salg",710 m²,4.995.000 kr.,7.035 kr./m²,54.928217,9.805465,Sønderborg Kommune
Mundelstrupvej 17B,8381 Tilst,https://www.ejendomstorvet.dk/koeb/oestjylland/aarhus/lager-produktion/3a93601d-4bfe-4980-8b2b-a438d50382ee,"Lager & produktion, salg",254 m²,1.950.000 kr.,7.677 kr./m²,56.193055,10.084323,Aarhus Kommune
Håndværkervej 52,4000 Roskilde,https://www.ejendomstorvet.dk/koeb/oestsjaelland/roskilde/lager-produktion/48ab1d81-381e-4c1a-bac4-fb44ffecef47,"Lager & produktion, salg",485 m²,4.495.000 kr.,9.268 kr./m²,55.640853,12.117501,Roskilde Kommune
Ellegårdvej 4,6400 Sønderborg,https://www.ejendomstorvet.dk/koeb/sydjylland/soenderborg/lager-produktion/4ac8e492-3cc5-43a6-a0c7-7fd8487da6e4,"Lager & produktion, salg",278 m²,2.495.000 kr.,8.974 kr./m²,54.926928,9.795558,Sønderborg Kommune
Tværvej 5,4672 Klippinge,https://www.ejendomstorvet.dk/koeb/vest-og-sydsjaelland/stevns/detailhandel-butik/741a87fb-9a66-453b-a671-c39b9d3076f6,"Detailhandel & butik, salg",399 m²,1.650.000 kr.,4.135 kr./m²,55.763496,12.442202,Gladsaxe Kommune
Skærbækvej 98,7000 Fredericia,https://www.ejendomstorvet.dk/koeb/sydjylland/fredericia/grunde/2cc4df8a-838c-4d90-af08-39b2d974c141,"Grunde, salg",4.822 m²,4.000.000 kr.,0 kr./m²,55.519767,9.634658,Fredericia Kommune
Mundelstrupvej 17B,8381 Tilst,https://www.ejendomstorvet.dk/koeb/oestjylland/aarhus/lager-produktion/43ee606b-f03b-4b47-adda-6e10325d720e,"Lager & produktion, salg",254 m²,1.950.000 kr.,7.677 kr./m²,56.193055,10.084323,Aarhus Kommune
Hejningevej 6A,4200 Slagelse,https://www.ejendomstorvet.dk/koeb/vest-og-sydsjaelland/slagelse/lager-produktion/6cfbe5ee-d5d6-40eb-a7f7-c6f9429913bf,"Lager & produktion, salg",5.057 m²,10.000.000 kr.,1.977 kr./m²,55.383474,11.291524,Slagelse Kommune
Nørregade 7A,3700 Rønne,https://www.ejendomstorvet.dk/koeb/bornholm/bornholm/andre-typer/f24e4492-4925-43f7-b8f3-7c7d81f1eb0f,"Andre typer, salg",1.199 m²,2.675.000 kr.,2.231 kr./m²,55.777892,12.50439,Lyngby-Taarbæk Kommune
"Salten Skovvej 2, 4 og 6",8653 Them,https://www.ejendomstorvet.dk/koeb/oestjylland/silkeborg/lager-produktion/da1082e5-d829-4ee4-ab0c-38bef7b88a56,"Lager & produktion, salg",7.611 m²,15.000.000 kr.,1.970 kr./m²,,,
Johs Haresvej 2,4863 Eskilstrup,https://www.ejendomstorvet.dk/koeb/vest-og-sydsjaelland/guldborgsund/lager-produktion/aa9a44ec-f85e-4794-81d2-eaca513e53ad,"Lager & produktion, salg",628 m²,2.695.000 kr.,4.291 kr./m²,54.853999,11.878539,Guldborgsund Kommune
Bagsværd Hovedgade 62A,2880 Bagsværd,https://www.ejendomstorvet.dk/koeb/koebenhavns-omegn/gladsaxe/detailhandel-butik/c2f53dc6-44ea-493c-ae13-8d62077b1e2c,"Detailhandel & butik, salg",140 m²,1.250.000 kr.,8.928 kr./m²,55.758562,12.45986,Gladsaxe Kommune
Leddet 4,9800 Hjørring,https://www.ejendomstorvet.dk/koeb/nordjylland/hjoerring/lager-produktion/2bfb3cbf-372b-44a4-85da-9f5e61405a36,"Lager & produktion, salg",439 m²,1.475.000 kr.,3.359 kr./m²,55.900215,9.763962,Horsens Kommune
Randersgade 2,2100 København Ø,https://www.ejendomstorvet.dk/koeb/byen-koebenhavn/koebenhavn/detailhandel-butik/f3daa9b6-98f1-4643-aa2a-1ebff2593b01,"Detailhandel & butik, salg",138 m²,3.900.000 kr.,28.260 kr./m²,55.702151,12.581958,Københavns Kommune
"Fuglsang 2, st",5270 Odense N,https://www.ejendomstorvet.dk/koeb/fyn/odense/detailhandel-butik/df7a06be-1fb2-4d3b-ba66-0147bfa3bd8f,"Detailhandel & butik, salg",1.089 m²,4.000.000 kr.,3.673 kr./m²,55.234676,12.160878,Faxe Kommune
Huginsvej 6,4100 Ringsted,https://www.ejendomstorvet.dk/koeb/vest-og-sydsjaelland/ringsted/lager-produktion/46345e82-8e1c-4b6d-bd0e-3618d82d91ad,"Lager & produktion, salg",585 m²,5.500.000 kr.,9.401 kr./m²,55.753671,12.459391,Gladsaxe Kommune
Guldborgvej 8,7400 Herning,https://www.ejendomstorvet.dk/koeb/vestjylland/herning/grunde/0f5b2f75-fe84-4c8c-95f6-735838f33c41,"Grunde, salg",6.957 m²,2.800.000 kr.,0 kr./m²,55.684841,12.52637,Frederiksberg Kommune
Strandgaardsvej 8,4760 Vordingborg,https://www.ejendomstorvet.dk/koeb/vest-og-sydsjaelland/vordingborg/hotel-restaurant/6d8039d7-b3b1-4df9-81e4-a86af0ba1d8e,"Hotel & restaurant, salg",970 m²,9.900.000 kr.,10.206 kr./m²,55.710351,9.609119,Vejle Kommune
Lundsbjerg industrivej 59,6200 Aabenraa,https://www.ejendomstorvet.dk/koeb/sydjylland/aabenraa/detailhandel-butik/425bc86d-d7bb-4c62-b91e-f255c17be89a,"Detailhandel & butik, salg",732 m²,4.250.000 kr.,5.806 kr./m²,55.00364,9.432332,Aabenraa Kommune
Hvidtjørnvej 14A,8471 Sabro,https://www.ejendomstorvet.dk/koeb/oestjylland/aarhus/grunde/27dd4ecc-f155-4ff9-956a-a645d137bccd,"Grunde, salg",2.333 m²,800.000 kr.,0 kr./m²,56.207515,10.041027,Aarhus Kommune
Vestergade 6A,5560 Aarup,https://www.ejendomstorvet.dk/koeb/fyn/assens/grunde/d489dbdf-b79e-4371-b12f-f083511b047c,"Grunde, salg",523 m²,500.000 kr.,0 kr./m²,55.678164,12.57079,Københavns Kommune
"Perlegade 58, st",6400 Sønderborg,https://www.ejendomstorvet.dk/koeb/sydjylland/soenderborg/detailhandel-butik/fef1c4db-b72a-4928-bd5b-d451c02754b6,"Detailhandel & butik, salg",67 m²,950.000 kr.,14.179 kr./m²,,,
Kaltoftevej 13,7000 Fredericia,https://www.ejendomstorvet.dk/koeb/sydjylland/fredericia/lager-produktion/7a825203-8dc2-49bf-bfd9-bb7632e38ad6,"Lager & produktion, salg",1.055 m²,3.500.000 kr.,3.317 kr./m²,55.581494,9.771279,Fredericia Kommune
Østerbrogade 75,8500 Grenaa,https://www.ejendomstorvet.dk/koeb/oestjylland/norddjurs/detailhandel-butik/a5bac172-7955-4d03-9438-1bd0be1a1e97,"Detailhandel & butik, salg",488 m²,4.500.000 kr.,9.221 kr./m²,57.058204,9.926149,Aalborg Kommune
Nygade 6,4700 Næstved,https://www.ejendomstorvet.dk/koeb/vest-og-sydsjaelland/naestved/andre-typer/a4035861-6207-4b00-94dd-28505b07fad5,"Andre typer, salg",369 m²,2.795.000 kr.,7.574 kr./m²,55.678201,12.573014,Københavns Kommune
Tømmervej 17,7080 Børkop,https://www.ejendomstorvet.dk/koeb/sydjylland/vejle/grunde/1af1f3c3-5be4-4102-8bf9-16090b7c58ef,"Grunde, salg",9.733 m²,3.700.000 kr.,0 kr./m²,55.640569,9.664306,Vejle Kommune
Århusvej 31,8660 Skanderborg,https://www.ejendomstorvet.dk/koeb/oestjylland/skanderborg/lager-produktion/6e7e87ca-a7f0-4c05-bd64-d4362c034934,"Lager & produktion, salg",381 m²,4.495.000 kr.,11.797 kr./m²,56.024569,12.595733,Helsingør Kommune
Plantagevej 1,6330 Padborg,https://www.ejendomstorvet.dk/koeb/sydjylland/aabenraa/lager-produktion/65e93949-514c-44b5-a05b-b1ad41855da9,"Lager & produktion, salg",2.858 m²,11.900.000 kr.,4.163 kr./m²,55.678415,12.435118,Rødovre Kommune
Nørregade 7,6670 Holsted,https://www.ejendomstorvet.dk/koeb/sydjylland/vejen/andre-typer/257daf86-2728-4522-897d-4592570c1a50,"Andre typer, salg",236 m²,698.000 kr.,2.957 kr./m²,55.678878,12.571926,Københavns Kommune
Lundsbjerg Industrivej 13,6200 Aabenraa,https://www.ejendomstorvet.dk/koeb/sydjylland/aabenraa/lager-produktion/78e8da66-db8d-42ff-bc97-5a61478d3c25,"Lager & produktion, salg",6.430 m²,22.000.000 kr.,3.421 kr./m²,55.002446,9.43718,Aabenraa Kommune
Ægirsvej 9 og 11,3400 Hillerød,https://www.ejendomstorvet.dk/koeb/nordsjaelland/hilleroed/lager-produktion/c1849cbf-e1fe-4f1c-8138-26f8e0275212,"Lager & produktion, salg",791 m²,9.970.000 kr.,12.604 kr./m²,56.037969,12.597888,Helsingør Kommune
Ægirsvej 11,3400 Hillerød,https://www.ejendomstorvet.dk/koeb/nordsjaelland/hilleroed/lager-produktion/09e71c30-fbe7-46a9-b383-d468363f81c9,"Lager & produktion, salg",541 m²,5.985.000 kr.,11.062 kr./m²,55.652148,12.087368,Roskilde Kommune
Ægirsvej 9,3400 Hillerød,https://www.ejendomstorvet.dk/koeb/nordsjaelland/hilleroed/lager-produktion/92ce132b-757c-40e3-b5d7-8b1c7764e561,"Lager & produktion, salg",250 m²,3.985.000 kr.,15.940 kr./m²,56.037969,12.597888,Helsingør Kommune
Ribevej 31C,6800 Varde,https://www.ejendomstorvet.dk/koeb/sydjylland/varde/lager-produktion/62ec67d6-cab6-424a-8e6a-0d7c0bf05b4b,"Lager & produktion, salg",304 m²,1.100.000 kr.,3.618 kr./m²,55.609924,8.494914,Varde Kommune
Ørbækvej 339B,5220 Odense SØ,https://www.ejendomstorvet.dk/koeb/fyn/odense/andre-typer/8a7bd414-d770-4bec-a32c-433d1b218b40,"Andre typer, salg",212 m²,2.850.000 kr.,13.443 kr./m²,55.37058,10.446987,Odense Kommune
Fåborgvej 1,4200 Slagelse,https://www.ejendomstorvet.dk/koeb/vest-og-sydsjaelland/slagelse/lager-produktion/c0ae5e88-2ed3-49b8-aa62-d359eece21b0,"Lager & produktion, salg",630 m²,3.700.000 kr.,5.873 kr./m²,56.443585,10.033394,Randers Kommune
Kongevejen 134,3000 Helsingør,https://www.ejendomstorvet.dk/koeb/nordsjaelland/helsingoer/andre-typer/c17a1667-60a8-4e81-bd03-79ec375ce422,"Andre typer, salg",272 m²,3.195.000 kr.,11.746 kr./m²,55.789208,12.48793,Lyngby-Taarbæk Kommune
Langagervej 10,6630 Rødding,https://www.ejendomstorvet.dk/koeb/sydjylland/vejen/lager-produktion/98f92a55-043d-45e3-8d3a-d3dae3d99c49,"Lager & produktion, salg",747 m²,2.250.000 kr.,3.012 kr./m²,55.660634,12.491932,Københavns Kommune
Østersøvej 3,9990 Skagen,https://www.ejendomstorvet.dk/koeb/nordjylland/frederikshavn/lager-produktion/e543b9ea-62d0-4d9a-bd0c-4b8a44ddd80c,"Lager & produktion, salg",903 m²,5.495.000 kr.,6.085 kr./m²,57.726973,10.566417,Frederikshavn Kommune
Koldingvej 71,6040 Egtved,https://www.ejendomstorvet.dk/koeb/sydjylland/kolding/grunde/5fecee80-853b-41dd-b5b5-ade09363f964,"Grunde, salg",142.276 m²,5.795.000 kr.,0 kr./m²,56.43267,9.391574,Viborg Kommune
Brænder Alle 4,4891 Toreby L,https://www.ejendomstorvet.dk/koeb/vest-og-sydsjaelland/guldborgsund/lager-produktion/cbf614b1-45d1-4a50-9895-9f029847912c,"Lager & produktion, salg",1.117 m²,2.285.000 kr.,2.045 kr./m²,54.749633,11.796403,Guldborgsund Kommune
Vestbirkvej 23,8752 Østbirk,https://www.ejendomstorvet.dk/koeb/oestjylland/horsens/andre-typer/abf00ea0-d470-4c9e-86f0-586e59ca9f05,"Andre typer, salg",758 m²,1.495.000 kr.,1.972 kr./m²,55.964749,9.73989,Horsens Kommune
Niels Bohrs Vej 36,8660 Skanderborg,https://www.ejendomstorvet.dk/koeb/oestjylland/skanderborg/lager-produktion/c2fdeb4b-0597-4810-a127-02331a35af15,"Lager & produktion, salg",714 m²,8.500.000 kr.,11.904 kr./m²,56.131515,10.175136,Aarhus Kommune
Gammel Viborgvej 13A,8381 Tilst,https://www.ejendomstorvet.dk/koeb/oestjylland/aarhus/grunde/649d2253-517e-43e5-9f53-8d3a9600bb3e,"Grunde, salg",4.285 m²,3.600.000 kr.,0 kr./m²,56.188088,10.084341,Aarhus Kommune
Gammelgabvej 2,6830 Nørre Nebel,https://www.ejendomstorvet.dk/koeb/sydjylland/varde/hotel-restaurant/1c713b6c-a2bc-477a-aab6-70b953f7cce8,"Hotel & restaurant, salg",446 m²,1.395.000 kr.,3.127 kr./m²,55.791872,8.235947,Varde Kommune
"Engager 1,",4490 Jerslev Sjælland,https://www.ejendomstorvet.dk/koeb/vest-og-sydsjaelland/kalundborg/grunde/1b09a5bb-d79c-4ab4-b5d3-6a97c93636e9,"Grunde, salg",28.500 m²,10.250.000 kr.,0 kr./m²,55.610172,11.236736,Kalundborg Kommune
Odinsvej 18,7200 Grindsted,https://www.ejendomstorvet.dk/koeb/sydjylland/billund/lager-produktion/3edd8186-4425-43d8-8978-dea9cad48d88,"Lager & produktion, salg",495 m²,2.795.000 kr.,5.646 kr./m²,56.157177,10.168089,Aarhus Kommune
Fiskerhusvej 29,4700 Næstved,https://www.ejendomstorvet.dk/koeb/vest-og-sydsjaelland/naestved/lager-produktion/7ec7bfb1-32e1-4ddb-ad40-f390d2726b2a,"Lager & produktion, salg",597 m²,4.750.000 kr.,7.956 kr./m²,55.202938,11.737468,Næstved Kommune
Trondhjemsvej 20,6230 Rødekro,https://www.ejendomstorvet.dk/koeb/sydjylland/aabenraa/grunde/f2dca773-8cab-4594-91a2-cb5a911bbc49,"Grunde, salg",4.315 m²,2.157.500 kr.,0 kr./m²,55.062263,9.343865,Aabenraa Kommune
Trondhjemsvej 20,6230 Rødekro,https://www.ejendomstorvet.dk/koeb/sydjylland/aabenraa/grunde/9bd31426-fab9-4a48-ba8d-7b74bf0e5020,"Grunde, salg",3.306 m²,1.570.350 kr.,0 kr./m²,55.062263,9.343865,Aabenraa Kommune
Trondhjemsvej 20,6230 Rødekro,https://www.ejendomstorvet.dk/koeb/sydjylland/aabenraa/grunde/9d3211fd-ca15-4397-ba90-ab296b962079,"Grunde, salg",5.480 m²,2.603.000 kr.,0 kr./m²,55.062263,9.343865,Aabenraa Kommune
Trondhjemsvej 20,6230 Rødekro,https://www.ejendomstorvet.dk/koeb/sydjylland/aabenraa/grunde/91b31a30-5f2b-4dca-9647-aa5c9b46a252,"Grunde, salg",3.615 m²,1.717.125 kr.,0 kr./m²,55.062263,9.343865,Aabenraa Kommune
Stormgade 48,6700 Esbjerg,https://www.ejendomstorvet.dk/koeb/sydjylland/esbjerg/detailhandel-butik/89dab228-df03-43cf-a855-b5889c8a3242,"Detailhandel & butik, salg",275 m²,2.175.000 kr.,7.909 kr./m²,55.470513,8.444423,Esbjerg Kommune
Kirkegårdsvej 38,2300 København S,https://www.ejendomstorvet.dk/koeb/byen-koebenhavn/koebenhavn/hotel-restaurant/5c2d0ccc-5b74-40df-9f1f-4100dc0dd2c0,"Hotel & restaurant, salg",82 m²,1.350.000 kr.,16.463 kr./m²,55.656391,12.612628,Københavns Kommune
Lyngåvej 76,8370 Hadsten,https://www.ejendomstorvet.dk/koeb/oestjylland/favrskov/hotel-restaurant/f32cade1-0393-45a7-ba7e-08056144a7d2,"Hotel & restaurant, salg",857 m²,2.450.000 kr.,2.858 kr./m²,56.315906,9.979599,Favrskov Kommune
Nordre Frihavnsgade 45,2100 København Ø,https://www.ejendomstorvet.dk/koeb/byen-koebenhavn/koebenhavn/detailhandel-butik/670ea5b6-7866-4d32-96e7-d6eadbac6c66,"Detailhandel & butik, salg",98 m²,2.150.000 kr.,21.938 kr./m²,55.702285,12.582503,Københavns Kommune
Suderbovej 18,9900 Frederikshavn,https://www.ejendomstorvet.dk/koeb/nordjylland/frederikshavn/lager-produktion/3261474e-f023-4d55-bf8e-e9f13dcbbff8,"Lager & produktion, salg",595 m²,2.750.000 kr.,4.621 kr./m²,57.44178,10.49425,Frederikshavn Kommune
Strandlyvej 1,3210 Vejby,https://www.ejendomstorvet.dk/koeb/nordsjaelland/gribskov/hotel-restaurant/426fc9c1-c3ce-4613-9b27-284abb4c2499,"Hotel & restaurant, salg",968 m²,15.000.000 kr.,15.495 kr./m²,56.079657,12.119715,Gribskov Kommune
Elmegårdsvej 4,8361 Hasselager,https://www.ejendomstorvet.dk/koeb/oestjylland/aarhus/grunde/4029016d-5419-4bb7-84ef-12eec35ffcc9,"Grunde, salg",4.919 m²,2.495.000 kr.,0 kr./m²,56.110594,10.108858,Aarhus Kommune
Havnen 10,9370 Hals,https://www.ejendomstorvet.dk/koeb/nordjylland/aalborg/hotel-restaurant/0f5fbf47-6898-4cce-a538-eacb1cce137d,"Hotel & restaurant, salg",117 m²,1.600.000 kr.,13.675 kr./m²,55.227354,11.758196,Næstved Kommune
Spedalsø 45,8700 Horsens,https://www.ejendomstorvet.dk/koeb/oestjylland/horsens/andre-typer/3b799678-dd3a-4ff8-94b0-ea681f735620,"Andre typer, salg",371 m²,2.700.000 kr.,7.277 kr./m²,55.854525,9.84412,Horsens Kommune
Gl. Hundestedvej 4,3300 Frederiksværk,https://www.ejendomstorvet.dk/koeb/nordsjaelland/halsnaes/lager-produktion/bcbe9f18-2488-4d13-9bc4-d6195ed5f01d,"Lager & produktion, salg",1.221 m²,6.990.000 kr.,5.724 kr./m²,55.977514,12.005544,Halsnæs Kommune
"Vejlevej 135,",7000 Fredericia,https://www.ejendomstorvet.dk/koeb/sydjylland/fredericia/detailhandel-butik/8abaaee4-1919-45b8-af6a-611ad61b9233,"Detailhandel & butik, salg",1.390 m²,11.900.000 kr.,8.561 kr./m²,55.504666,9.457395,Kolding Kommune
Svalehøjvej 7,3650 Ølstykke,https://www.ejendomstorvet.dk/koeb/nordsjaelland/egedal/lager-produktion/47be2531-5f8e-42d5-8dd3-c7a53233ee32,"Lager & produktion, salg",987 m²,7.795.000 kr.,7.897 kr./m²,55.766919,12.137159,Egedal Kommune
"Hartkornsvej 51,",4760 Vordingborg,https://www.ejendomstorvet.dk/koeb/vest-og-sydsjaelland/vordingborg/andre-typer/b43410ff-f7fd-4ad2-99c9-ef83bcf389ef,"Andre typer, salg",821 m²,4.500.000 kr.,5.481 kr./m²,55.040515,11.959841,Vordingborg Kommune
"Hartkornsvej 51,",4760 Vordingborg,https://www.ejendomstorvet.dk/koeb/vest-og-sydsjaelland/vordingborg/detailhandel-butik/16bf2544-0bf3-4c9b-b794-813793921279,"Detailhandel & butik, salg",821 m²,4.500.000 kr.,5.481 kr./m²,55.040515,11.959841,Vordingborg Kommune
Valby Langgade 49,2500 Valby,https://www.ejendomstorvet.dk/koeb/byen-koebenhavn/koebenhavn/detailhandel-butik/9a6a2e5a-5f77-4032-8e6d-287e538a94dd,"Detailhandel & butik, salg",147 m²,1.000.000 kr.,6.802 kr./m²,55.666526,12.516945,Københavns Kommune
Bundgårdsvej 3,7000 Fredericia,https://www.ejendomstorvet.dk/koeb/sydjylland/fredericia/lager-produktion/6608c39d-ff27-445c-8079-4ec38bd509b9,"Lager & produktion, salg",8.214 m²,41.700.000 kr.,5.076 kr./m²,57.144145,9.809933,Jammerbugt Kommune
Sintrupvej 50,8220 Brabrand,https://www.ejendomstorvet.dk/koeb/oestjylland/aarhus/lager-produktion/250fc33a-3d4c-4378-b359-1af371a9877b,"Lager & produktion, salg",1.865 m²,13.500.000 kr.,7.238 kr./m²,56.168382,10.10101,Aarhus Kommune
Nederdammen 36,6760 Ribe,https://www.ejendomstorvet.dk/koeb/sydjylland/esbjerg/hotel-restaurant/2bf8f8fd-f29a-43fd-a3bf-00a73fd6f398,"Hotel & restaurant, salg",524 m²,5.795.000 kr.,11.059 kr./m²,55.329639,8.765999,Esbjerg Kommune
Banegårdspladsen 13,9850 Hirtshals,https://www.ejendomstorvet.dk/koeb/nordjylland/hjoerring/detailhandel-butik/e4c2226d-aa46-4909-a32e-d4c8c4f3bd32,"Detailhandel & butik, salg",1.094 m²,4.750.000 kr.,4.341 kr./m²,56.374584,9.657907,Viborg Kommune
Bjerge Landevej 6,4480 Store Fuglede,https://www.ejendomstorvet.dk/koeb/vest-og-sydsjaelland/kalundborg/andre-typer/fc1f6733-d57e-4b23-a2de-4b5b3aacd445,"Andre typer, salg",289 m²,1.950.000 kr.,6.747 kr./m²,55.590102,11.184962,Kalundborg Kommune
"Elsenbakken 3,",3600 Frederikssund,https://www.ejendomstorvet.dk/koeb/nordsjaelland/frederikssund/lager-produktion/b9dbf095-99d7-40a9-8e3c-608ab55f413e,"Lager & produktion, salg",992 m²,5.500.000 kr.,5.544 kr./m²,55.848986,12.065851,Frederikssund Kommune
Istedgade 15,8700 Horsens,https://www.ejendomstorvet.dk/koeb/oestjylland/horsens/andre-typer/16a401fb-c0c0-4dc2-9df0-82484f2f9bf8,"Andre typer, salg",190 m²,1.600.000 kr.,8.421 kr./m²,55.67133,12.56056,Københavns Kommune
Kirkebjergvej 1,4180 Sorø,https://www.ejendomstorvet.dk/koeb/vest-og-sydsjaelland/soroe/lager-produktion/5fbaea5c-0904-4abb-80d2-b39edf80bb1d,"Lager & produktion, salg",3.899 m²,18.595.000 kr.,4.769 kr./m²,55.46669,11.569493,Sorø Kommune
Nervøsvej 11,9430 Vadum,https://www.ejendomstorvet.dk/koeb/nordjylland/aalborg/hotel-restaurant/047e9c8b-4042-43c9-830f-cb5820e4776f,"Hotel & restaurant, salg",904 m²,1.875.000 kr.,2.074 kr./m²,57.122091,9.860477,Aalborg Kommune
Solens Plads 20,4220 Korsør,https://www.ejendomstorvet.dk/koeb/vest-og-sydsjaelland/slagelse/detailhandel-butik/0dd6acc3-7bb7-4c33-b222-dfa7cac761de,"Detailhandel & butik, salg",538 m²,1.600.000 kr.,2.973 kr./m²,55.330648,11.137453,Slagelse Kommune
Hvidtjørnvej 9A,8471 Sabro,https://www.ejendomstorvet.dk/koeb/oestjylland/aarhus/lager-produktion/a85887c9-e0d6-43c3-9888-9433d21f479d,"Lager & produktion, salg",600 m²,5.750.000 kr.,9.583 kr./m²,56.207012,10.04158,Aarhus Kommune
"Højrupsvej 27,",9900 Frederikshavn,https://www.ejendomstorvet.dk/koeb/nordjylland/frederikshavn/lager-produktion/412ba317-30b2-4c05-b6a6-164e1a5404e7,"Lager & produktion, salg",279 m²,995.000 kr.,3.566 kr./m²,57.431118,10.513957,Frederikshavn Kommune
Brøndby Havnevej 19,2650 Hvidovre,https://www.ejendomstorvet.dk/koeb/koebenhavns-omegn/broendby/lager-produktion/d4968917-aca4-486e-a535-bb2ef8e2b949,"Lager & produktion, salg",1.548 m²,4.500.000 kr.,2.906 kr./m²,55.608365,12.44476,
Kærvej 12,2970 Hørsholm,https://www.ejendomstorvet.dk/koeb/nordsjaelland/hoersholm/lager-produktion/ed1c0a1c-2512-49af-9d67-ee51399b0d22,"Lager & produktion, salg",1.850 m²,22.500.000 kr.,12.162 kr./m²,55.358565,10.466116,Odense Kommune
Vejlbyvej 2A,5500 Middelfart,https://www.ejendomstorvet.dk/koeb/fyn/middelfart/andre-typer/172c0ae8-38de-4cf7-b2e4-626e2a0ec984,"Andre typer, salg",4.602 m²,7.500.000 kr.,1.629 kr./m²,55.503679,9.818642,Middelfart Kommune
"Søndergade 1, st",9370 Hals,https://www.ejendomstorvet.dk/koeb/nordjylland/aalborg/andre-typer/1cb0e4c0-83b3-4a40-ac2a-af59b8a5de28,"Andre typer, salg",434 m²,1.200.000 kr.,2.764 kr./m²,55.5933149,12.6328972,Dragør Kommune
Stegholt 8b,6200 Aabenraa,https://www.ejendomstorvet.dk/koeb/sydjylland/aabenraa/detailhandel-butik/827b1363-8876-481a-8850-71281bbfab80,"Detailhandel & butik, salg",329 m²,3.750.000 kr.,11.398 kr./m²,55.033976,9.416798,Aabenraa Kommune
Hovedgaden 7,5853 Ørbæk,https://www.ejendomstorvet.dk/koeb/fyn/nyborg/detailhandel-butik/8f1f1a26-03d6-46cf-b5d8-ff88f5c8fe6f,"Detailhandel & butik, salg",500 m²,995.000 kr.,1.990 kr./m²,55.543245,12.116603,Solrød Kommune
Hans Aabelsvej 1,9300 Sæby,https://www.ejendomstorvet.dk/koeb/nordjylland/frederikshavn/hotel-restaurant/c929e641-4729-4605-85e0-4986474b3999,"Hotel & restaurant, salg",571 m²,10.000.000 kr.,17.513 kr./m²,57.334922,10.514782,Frederikshavn Kommune
Nybo Bakke 3,7500 Holstebro,https://www.ejendomstorvet.dk/koeb/vestjylland/holstebro/lager-produktion/8f5a731f-5408-4517-a386-dcaa62dfe542,"Lager & produktion, salg",2.809 m²,8.000.000 kr.,2.847 kr./m²,56.340062,8.635292,Holstebro Kommune
Nørregade 34A,3300 Frederiksværk,https://www.ejendomstorvet.dk/koeb/nordsjaelland/halsnaes/andre-typer/584045d0-957e-4f47-8fc6-69c107be94ee,"Andre typer, salg",585 m²,3.575.000 kr.,6.111 kr./m²,55.681864,12.571272,Københavns Kommune
Jægersborg Alle 27B,2920 Charlottenlund,https://www.ejendomstorvet.dk/koeb/koebenhavns-omegn/gentofte/detailhandel-butik/b9d1ccd0-501b-42af-80c2-8407ec32cb3a,"Detailhandel & butik, salg",69 m²,1.800.000 kr.,26.086 kr./m²,55.754343,12.568468,Gentofte Kommune
Tofteengen 13,3540 Lynge,https://www.ejendomstorvet.dk/koeb/nordsjaelland/alleroed/grunde/f931ba5e-c007-4355-ae88-5b3d23c35ea6,"Grunde, salg",17.508 m²,10.000.000 kr.,0 kr./m²,55.694883,12.147372,Roskilde Kommune
"Markedsgade 30, st",8900 Randers C,https://www.ejendomstorvet.dk/koeb/oestjylland/randers/detailhandel-butik/8d75c3c1-9475-4339-a27a-7b51dd8ff0ff,"Detailhandel & butik, salg",90 m²,350.000 kr.,3.888 kr./m²,,,
Stationsvej 6,5260 Odense S,https://www.ejendomstorvet.dk/koeb/fyn/odense/andre-typer/bafd67e4-f8e5-4cba-9299-87176d26cbff,"Andre typer, salg",464 m²,2.795.000 kr.,6.023 kr./m²,55.594732,12.670017,Dragør Kommune
Skakkes Holm 12,8500 Grenaa,https://www.ejendomstorvet.dk/koeb/oestjylland/norddjurs/detailhandel-butik/6400a8fb-e9c3-45b9-b87d-efbc0063f8d2,"Detailhandel & butik, salg",111 m²,1.490.000 kr.,13.423 kr./m²,56.405849,10.924501,Norddjurs Kommune
"Nørreskov Bakke 78, 82",8600 Silkeborg,https://www.ejendomstorvet.dk/koeb/oestjylland/silkeborg/grunde/5adef2a4-ca22-4776-8c28-7da9252d5cd6,"Grunde, salg",11.529 m²,7.500.000 kr.,0 kr./m²,56.199996,9.595734,Silkeborg Kommune
Vestergade 12,4990 Sakskøbing,https://www.ejendomstorvet.dk/koeb/vest-og-sydsjaelland/guldborgsund/andre-typer/b2fb7ec1-6774-417e-8215-b4cdce2c5d4c,"Andre typer, salg",475 m²,1.445.000 kr.,3.042 kr./m²,55.677815,12.570313,Københavns Kommune
Vestergade 11,8800 Viborg,https://www.ejendomstorvet.dk/koeb/vestjylland/viborg/andre-typer/afbaaf21-6230-4f0d-9e60-1ad475c901fb,"Andre typer, salg",662 m²,5.750.000 kr.,8.685 kr./m²,55.677717,12.570543,Københavns Kommune
Vestergade 39,5800 Nyborg,https://www.ejendomstorvet.dk/koeb/fyn/nyborg/detailhandel-butik/3fb67a24-5246-41ea-9bb7-8788c977fc94,"Detailhandel & butik, salg",1.101 m²,8.500.000 kr.,7.720 kr./m²,55.676745,12.568784,Københavns Kommune
Godthåbsvej 22,2000 Frederiksberg,https://www.ejendomstorvet.dk/koeb/byen-koebenhavn/frederiksberg/detailhandel-butik/5bc07bc1-a38b-48c0-8cb6-88a0fbd47d5c,"Detailhandel & butik, salg",163 m²,5.600.000 kr.,34.355 kr./m²,55.686226,12.535159,Frederiksberg Kommune
Mosevej 29,8240 Risskov,https://www.ejendomstorvet.dk/koeb/oestjylland/aarhus/lager-produktion/0b932e75-c5ac-42e4-80d9-900b1b6b7c4e,"Lager & produktion, salg",3.226 m²,7.000.000 kr.,2.169 kr./m²,56.211581,10.238219,Aarhus Kommune
Værkstedvej 36,2500 Valby,https://www.ejendomstorvet.dk/koeb/byen-koebenhavn/koebenhavn/lager-produktion/333f6204-aa71-4cd4-b2a3-91405f810eb7,"Lager & produktion, salg",100 m²,4.250.000 kr.,42.500 kr./m²,55.652208,12.506111,Københavns Kommune
Sct. Clemens Vej 3,9990 Skagen,https://www.ejendomstorvet.dk/koeb/nordjylland/frederikshavn/hotel-restaurant/646288ef-18c1-4deb-947d-514bddd915c8,"Hotel & restaurant, salg",475 m²,11.000.000 kr.,23.157 kr./m²,57.718594,10.583435,Frederikshavn Kommune
Engholmvej 18,3100 Hornbæk,https://www.ejendomstorvet.dk/koeb/nordsjaelland/helsingoer/andre-typer/91dfd977-642f-48c4-8da6-2793ac8f3c19,"Andre typer, salg",397 m²,4.500.000 kr.,11.335 kr./m²,55.663657,12.099211,Roskilde Kommune
Skrågade 10,9400 Nørresundby,https://www.ejendomstorvet.dk/koeb/nordjylland/aalborg/detailhandel-butik/b1a02aa3-6dfa-40e3-965f-7846fe83598a,"Detailhandel & butik, salg",504 m²,2.975.000 kr.,5.902 kr./m²,57.058471,9.924407,Aalborg Kommune
Egestubben 14A,5270 Odense N,https://www.ejendomstorvet.dk/koeb/fyn/odense/lager-produktion/1253c9b8-9a8a-42e4-ac01-b8f14a58686f,"Lager & produktion, salg",445 m²,3.150.000 kr.,7.078 kr./m²,55.427088,10.356125,Odense Kommune
"Gothersgade 61, st",7000 Fredericia,https://www.ejendomstorvet.dk/koeb/sydjylland/fredericia/hotel-restaurant/72b58e71-7a81-42f9-8c6b-aa4c2b4e61e4,"Hotel & restaurant, salg",357 m²,4.275.000 kr.,11.974 kr./m²,,,
Amagerbrogade 42,2300 København S,https://www.ejendomstorvet.dk/koeb/byen-koebenhavn/koebenhavn/detailhandel-butik/7882d35a-3100-434c-8dab-fe3afe9f80f7,"Detailhandel & butik, salg",181 m²,2.850.000 kr.,15.745 kr./m²,55.663711,12.600877,Københavns Kommune
Rudolph Berghs Gade 1,2100 København Ø,https://www.ejendomstorvet.dk/koeb/byen-koebenhavn/koebenhavn/hotel-restaurant/a2f304b6-e315-4cf0-a6f4-4f407e786f5e,"Hotel & restaurant, salg",100 m²,3.995.000 kr.,39.950 kr./m²,55.709035,12.558168,Københavns Kommune
Trondhjemsvej 20,6230 Rødekro,https://www.ejendomstorvet.dk/koeb/sydjylland/aabenraa/grunde/2c712b15-a5e4-41a4-8623-f76c5e51771f,"Grunde, salg",2.696 m²,1.415.400 kr.,0 kr./m²,55.062263,9.343865,Aabenraa Kommune
Trondhjemsvej 20,6230 Rødekro,https://www.ejendomstorvet.dk/koeb/sydjylland/aabenraa/grunde/d7538bd5-5ee9-4a9c-81ed-cafdaa84411c,"Grunde, salg",5.766 m²,2.594.700 kr.,0 kr./m²,55.062263,9.343865,Aabenraa Kommune
